$GPGGA,010439.000,3242.5112,N,09721.5018,W,2,6,1.22,203.6,M,-23.5,M,0000,0000*6A
$GPGSA,A,3,17,28,12,09,04,02,,,,,,,1.52,1.22,0.90*0C
$GPGSV,2,1,08,04,87,152,29,51,50,197,34,02,48,221,29,17,44,052,31*7A
$GPGSV,2,2,08,09,34,283,20,28,32,126,21,12,18,316,21,20,12,048,*79
$GPRMC,010439.000,A,3242.5112,N,09721.5018,W,0.22,228.61,120907,,,D*75
$GPGGA,010440.000,3242.5112,N,09721.5019,W,2,6,1.22,203.6,M,-23.5,M,0000,0000*65
$GPGSA,A,3,17,28,12,09,04,02,,,,,,,1.52,1.22,0.90*0C
$GPGSV,2,1,08,04,87,152,29,51,50,197,34,02,48,221,28,17,44,052,31*7B
$GPGSV,2,2,08,09,34,283,20,28,32,126,20,12,18,316,21,20,12,048,*78
$GPRMC,010440.000,A,3242.5112,N,09721.5019,W,0.38,245.36,120907,,,D*78
$GPGGA,010441.000,3242.5112,N,09721.5020,W,2,6,1.22,203.6,M,-23.5,M,0000,0000*6E
$GPGSA,A,3,17,28,12,09,04,02,,,,,,,1.52,1.22,0.90*0C
$GPGSV,2,1,08,04,87,152,29,51,50,197,34,02,48,221,28,17,44,052,31*7B
$GPGSV,2,2,08,09,34,283,20,28,32,126,20,12,18,316,21,20,12,048,*78
$GPRMC,010441.000,A,3242.5112,N,09721.5020,W,0.37,255.74,120907,,,D*7B
$GPGGA,010442.000,3242.5112,N,09721.5021,W,2,6,1.22,203.6,M,-23.5,M,0000,0000*6C
$GPGSA,A,3,17,28,12,09,04,02,,,,,,,1.52,1.22,0.90*0C
$GPGSV,2,1,08,04,87,152,29,51,50,197,34,02,48,221,28,17,44,052,31*7B
$GPGSV,2,2,08,09,34,283,20,28,32,126,20,12,18,316,21,20,12,048,*78
$GPRMC,010442.000,A,3242.5112,N,09721.5021,W,0.33,268.95,120907,,,D*7C
$GPGGA,010443.000,3242.5112,N,09721.5022,W,2,6,1.22,203.6,M,-23.5,M,0000,0000*6E
$GPGSA,A,3,17,28,12,09,04,02,,,,,,,1.52,1.22,0.90*0C
$GPGSV,2,1,08,04,87,152,29,51,50,197,34,02,48,221,28,17,44,052,31*7B
$GPGSV,2,2,08,09,34,283,20,28,32,126,20,12,18,316,21,20,12,048,*78
$GPRMC,010443.000,A,3242.5112,N,09721.5022,W,0.26,275.11,120907,,,D*7A
$GPGGA,010444.000,3242.5112,N,09721.5023,W,2,6,1.22,203.6,M,-23.5,M,0000,0000*68
$GPGSA,A,3,17,28,12,09,04,02,,,,,,,1.52,1.22,0.90*0C
$GPGSV,2,1,07,04,87,152,30,51,50,197,33,02,48,221,28,17,44,052,31*7B
$GPGSV,2,2,07,09,34,283,20,28,32,127,20,12,18,316,21*4B
$GPRMC,010444.000,A,3242.5112,N,09721.5023,W,0.16,275.11,120907,,,D*7F
$GPGGA,010445.000,3242.5112,N,09721.5024,W,2,6,1.22,203.6,M,-23.5,M,0000,0000*6E
$GPGSA,A,3,17,28,12,09,04,02,,,,,,,1.52,1.22,0.90*0C
$GPGSV,2,1,08,04,87,152,30,51,50,197,33,02,48,221,28,17,44,052,31*74
$GPGSV,2,2,08,09,34,283,20,28,32,127,21,12,18,316,21,20,12,048,*78
$GPRMC,010445.000,A,3242.5112,N,09721.5024,W,0.24,264.54,120907,,,D*79
$GPGGA,010446.000,3242.5112,N,09721.5023,W,2,6,1.22,203.6,M,-23.5,M,0000,0000*6A
$GPGSA,A,3,17,28,12,09,04,02,,,,,,,1.52,1.22,0.90*0C
$GPGSV,2,1,08,04,87,152,30,51,50,197,33,02,48,221,28,17,44,052,31*74
$GPGSV,2,2,08,09,34,283,20,28,32,127,21,12,18,316,22,20,12,048,*7B
$GPRMC,010446.000,A,3242.5112,N,09721.5023,W,0.14,264.54,120907,,,D*7E
$GPGGA,010447.000,3242.5112,N,09721.5023,W,2,6,1.22,203.6,M,-23.5,M,0000,0000*6B
$GPGSA,A,3,17,28,12,09,04,02,,,,,,,1.52,1.22,0.90*0C
$GPGSV,2,1,08,04,87,152,30,51,50,197,33,02,48,221,27,17,44,052,31*7B
$GPGSV,2,2,08,09,34,283,21,28,32,127,21,12,18,316,22,20,12,048,*7A
$GPRMC,010447.000,A,3242.5112,N,09721.5023,W,0.26,310.43,120907,,,D*7A
$GPGGA,010448.000,3242.5113,N,09721.5023,W,2,6,1.22,203.6,M,-23.5,M,0000,0000*65
$GPGSA,A,3,17,28,12,09,04,02,,,,,,,1.52,1.22,0.90*0C
$GPGSV,2,1,08,04,87,152,30,51,50,197,33,02,48,221,27,17,44,052,31*7B
$GPGSV,2,2,08,09,34,283,21,28,32,127,22,12,18,316,22,20,12,048,*79
$GPRMC,010448.000,A,3242.5113,N,09721.5023,W,0.44,337.31,120907,,,D*70
$GPGGA,010449.000,3242.5114,N,09721.5023,W,2,6,1.27,203.6,M,-23.5,M,0000,0000*66
$GPGSA,A,3,17,28,12,09,04,02,,,,,,,2.46,1.27,2.11*04
$GPGSV,2,1,08,04,87,152,30,51,50,197,33,02,48,221,28,17,44,052,31*74
$GPGSV,2,2,08,09,34,283,21,28,32,127,22,12,18,316,22,20,12,048,*79
$GPRMC,010449.000,A,3242.5114,N,09721.5023,W,0.41,345.08,120907,,,D*7C
$GPGGA,010450.000,3242.5116,N,09721.5023,W,2,6,1.27,203.6,M,-23.5,M,0000,0000*6C
$GPGSA,A,3,17,28,12,09,04,02,,,,,,,2.46,1.27,2.11*04
$GPGSV,2,1,08,04,87,152,30,51,50,197,33,02,49,222,27,17,44,052,31*79
$GPGSV,2,2,08,09,34,283,21,28,32,127,23,12,18,316,22,20,12,048,*78
$GPRMC,010450.000,A,3242.5116,N,09721.5023,W,0.42,358.54,120907,,,D*70
$GPGGA,010451.000,3242.5117,N,09721.5023,W,2,6,1.22,203.6,M,-23.5,M,0000,0000*69
$GPGSA,A,3,17,28,12,09,04,02,,,,,,,1.52,1.22,0.90*0C
$GPGSV,2,1,08,04,87,152,30,51,50,197,33,02,49,222,27,17,44,052,31*79
$GPGSV,2,2,08,09,34,283,21,28,32,127,21,12,18,316,22,20,12,048,*7A
$GPRMC,010451.000,A,3242.5117,N,09721.5023,W,0.51,8.21,120907,,,D*76
$GPGGA,010452.000,3242.5118,N,09721.5022,W,2,6,1.22,203.6,M,-23.5,M,0000,0000*64
$GPGSA,A,3,17,28,12,09,04,02,,,,,,,1.52,1.22,0.90*0C
$GPGSV,2,1,08,04,88,147,30,51,50,197,33,02,49,222,27,17,44,052,31*72
$GPGSV,2,2,08,09,34,283,21,28,32,127,21,12,18,316,22,20,12,048,*7A
$GPRMC,010452.000,A,3242.5118,N,09721.5022,W,0.47,14.75,120907,,,D*40
$GPGGA,010453.000,3242.5119,N,09721.5022,W,2,6,1.22,203.6,M,-23.5,M,0000,0000*64
$GPGSA,A,3,17,28,12,09,04,02,,,,,,,1.52,1.22,0.90*0C
$GPGSV,2,1,08,04,88,147,30,51,50,197,33,02,49,222,27,17,44,052,31*72
$GPGSV,2,2,08,09,34,283,21,28,32,127,21,12,18,316,22,20,12,048,*7A
$GPRMC,010453.000,A,3242.5119,N,09721.5022,W,0.08,14.75,120907,,,D*4B
$GPGGA,010454.000,3242.5119,N,09721.5022,W,2,6,1.22,203.7,M,-23.5,M,0000,0000*62
$GPGSA,A,3,17,28,12,09,04,02,,,,,,,1.52,1.22,0.90*0C
$GPGSV,2,1,08,04,88,147,31,51,50,197,34,02,49,222,27,17,44,052,31*74
$GPGSV,2,2,08,09,34,283,21,28,32,127,22,12,18,316,22,20,12,048,*79
$GPRMC,010454.000,A,3242.5119,N,09721.5022,W,0.10,14.75,120907,,,D*45
$GPGGA,010455.000,3242.5119,N,09721.5022,W,2,6,1.22,203.7,M,-23.5,M,0000,0000*63
$GPGSA,A,3,17,28,12,09,04,02,,,,,,,1.52,1.22,0.90*0C
$GPGSV,2,1,08,04,88,147,31,51,50,197,34,02,49,222,26,17,44,052,30*74
$GPGSV,2,2,08,09,34,283,21,28,32,127,22,12,18,316,22,20,12,048,*79
$GPRMC,010455.000,A,3242.5119,N,09721.5022,W,0.12,14.75,120907,,,D*46
$GPGGA,010456.000,3242.5119,N,09721.5022,W,2,6,1.22,203.7,M,-23.5,M,0000,0000*60
$GPGSA,A,3,17,28,12,09,04,02,,,,,,,1.52,1.22,0.90*0C
$GPGSV,2,1,08,04,88,147,31,51,50,197,34,02,49,222,25,17,44,052,30*77
$GPGSV,2,2,08,09,34,283,21,28,32,127,21,12,18,316,21,20,12,048,*79
$GPRMC,010456.000,A,3242.5119,N,09721.5022,W,0.17,14.75,120907,,,D*40
$GPGGA,010457.000,3242.5119,N,09721.5023,W,2,6,1.22,203.7,M,-23.5,M,0000,0000*60
$GPGSA,A,3,17,28,12,09,04,02,,,,,,,1.52,1.22,0.90*0C
$GPGSV,2,1,08,04,88,147,31,51,50,197,34,02,49,222,25,17,44,052,30*77
$GPGSV,2,2,08,09,34,283,22,28,32,127,22,12,18,316,21,20,12,048,*79
$GPRMC,010457.000,A,3242.5119,N,09721.5023,W,0.30,337.51,120907,,,D*71
$GPGGA,010458.000,3242.5120,N,09721.5023,W,2,6,1.22,203.7,M,-23.5,M,0000,0000*65
$GPGSA,A,3,17,28,12,09,04,02,,,,,,,1.52,1.22,0.90*0C
$GPGSV,2,1,08,04,88,147,31,51,50,197,34,02,49,222,25,17,44,052,30*77
$GPGSV,2,2,08,09,34,283,22,28,32,127,23,12,18,316,21,20,12,048,*78
$GPRMC,010458.000,A,3242.5120,N,09721.5023,W,0.34,338.42,120907,,,D*7D