$GPGGA,003852.000,3047.0680,N,09550.3040,W,1,7,1.07,60.2,M,-23.6,M,,*5D
$GPGSA,A,3,04,17,02,28,09,20,12,,,,,,1.39,1.07,0.88*0D
$GPGSV,2,1,08,04,85,205,51,51,52,201,39,17,46,044,50,02,45,222,46*70
$GPGSV,2,2,08,28,38,123,41,09,32,291,49,20,14,051,46,12,12,315,42*7A
$GPRMC,003852.000,A,3047.0680,N,09550.3040,W,0.35,19.74,160907,,,A*44
$GPGGA,003853.000,3047.0681,N,09550.3039,W,1,7,1.22,60.3,M,-23.6,M,,*55
$GPGSA,A,3,04,17,02,28,09,20,12,,,,,,2.23,1.22,1.86*0D
$GPGSV,2,1,08,04,85,205,51,51,52,201,38,17,46,044,50,02,45,222,47*70
$GPGSV,2,2,08,28,38,123,42,09,32,291,50,20,14,051,46,12,12,315,43*70
$GPRMC,003853.000,A,3047.0681,N,09550.3039,W,0.62,16.47,160907,,,A*47
$GPGGA,003854.000,3047.0683,N,09550.3037,W,1,7,1.07,60.8,M,-23.6,M,,*52
$GPGSA,A,3,04,17,02,28,09,20,12,,,,,,1.39,1.07,0.88*0D
$GPGSV,2,1,08,04,85,205,51,51,52,201,37,17,46,044,50,02,45,222,47*7F
$GPGSV,2,2,08,28,38,123,42,09,32,291,50,20,14,051,46,12,12,315,43*70
$GPRMC,003854.000,A,3047.0683,N,09550.3037,W,1.28,15.86,160907,,,A*4D
$GPGGA,003855.000,3047.0687,N,09550.3036,W,1,7,1.07,61.3,M,-23.6,M,,*5C
$GPGSA,A,3,04,17,02,28,09,20,12,,,,,,1.39,1.07,0.88*0D
$GPGSV,2,1,08,04,85,205,51,51,52,201,36,17,46,044,49,02,45,222,47*76
$GPGSV,2,2,08,28,38,123,42,09,32,291,50,20,14,051,46,12,12,315,44*77
$GPRMC,003855.000,A,3047.0687,N,09550.3036,W,1.75,15.24,160907,,,A*49
$GPGGA,003856.000,3047.0692,N,09550.3035,W,1,7,1.22,61.7,M,-23.6,M,,*5B
$GPGSA,A,3,04,17,02,28,09,20,12,,,,,,2.22,1.22,1.86*0C
$GPGSV,2,1,08,04,85,205,51,51,52,201,37,17,46,044,49,02,45,222,47*77
$GPGSV,2,2,08,28,38,123,42,09,32,291,50,20,14,051,46,12,12,315,44*77
$GPRMC,003856.000,A,3047.0692,N,09550.3035,W,2.64,13.28,160907,,,A*44
$GPGGA,003857.000,3047.0700,N,09550.3032,W,1,7,1.22,62.0,M,-23.6,M,,*53
$GPGSA,A,3,04,17,02,28,09,20,12,,,,,,2.23,1.22,1.86*0D
$GPGSV,2,1,08,04,85,206,51,51,52,201,38,17,46,044,49,02,45,222,47*7B
$GPGSV,2,2,08,28,38,123,42,09,32,291,50,20,14,051,46,12,12,315,44*77
$GPRMC,003857.000,A,3047.0700,N,09550.3032,W,3.47,11.05,160907,,,A*45
$GPGGA,003858.000,3047.0712,N,09550.3028,W,1,7,1.22,62.5,M,-23.6,M,,*51
$GPGSA,A,3,04,17,02,28,09,20,12,,,,,,2.23,1.22,1.87*0C
$GPGSV,2,1,08,04,85,206,51,51,52,201,39,17,46,044,49,02,45,222,47*7A
$GPGSV,2,2,08,28,38,123,42,09,32,291,50,20,14,051,46,12,12,315,44*77
$GPRMC,003858.000,A,3047.0712,N,09550.3028,W,3.86,15.65,160907,,,A*4D
$GPGGA,003859.000,3047.0722,N,09550.3024,W,1,7,1.07,62.3,M,-23.6,M,,*5E
$GPGSA,A,3,04,17,02,28,09,20,12,,,,,,1.39,1.07,0.88*0D
$GPGSV,2,1,08,04,85,206,51,51,52,201,39,17,46,044,48,02,45,222,47*7B
$GPGSV,2,2,08,28,38,123,42,09,32,291,49,20,14,051,47,12,12,315,44*7E
$GPRMC,003859.000,A,3047.0722,N,09550.3024,W,4.70,13.35,160907,,,A*4E
$GPGGA,003900.000,3047.0734,N,09550.3021,W,1,7,1.22,62.3,M,-23.6,M,,*56
$GPGSA,A,3,04,17,02,28,09,20,12,,,,,,2.23,1.22,1.86*0D
$GPGSV,2,1,08,04,85,206,51,51,52,201,38,17,46,044,48,02,45,222,47*7A
$GPGSV,2,2,08,28,38,123,42,09,32,291,49,20,14,051,47,12,12,315,43*79
$GPRMC,003900.000,A,3047.0734,N,09550.3021,W,4.49,8.02,160907,,,A*75
$GPGGA,003901.000,3047.0748,N,09550.3021,W,1,7,1.22,62.5,M,-23.6,M,,*5A
$GPGSA,A,3,04,17,02,28,09,20,12,,,,,,2.23,1.22,1.86*0D
$GPGSV,2,1,08,04,85,206,51,51,52,201,37,17,46,044,48,02,45,222,47*75
$GPGSV,2,2,08,28,38,123,43,09,32,291,48,20,14,051,47,12,12,315,43*79
$GPRMC,003901.000,A,3047.0748,N,09550.3021,W,4.55,1.97,160907,,,A*77
$GPGGA,003902.000,3047.0762,N,09550.3019,W,1,7,1.22,62.7,M,-23.6,M,,*58
$GPGSA,A,3,04,17,02,28,09,20,12,,,,,,2.23,1.22,1.86*0D
$GPGSV,2,1,08,04,85,206,51,51,52,201,38,17,46,044,48,02,45,222,47*7A
$GPGSV,2,2,08,28,38,123,43,09,32,291,47,20,14,051,46,12,12,315,44*70
$GPRMC,003902.000,A,3047.0762,N,09550.3019,W,4.33,6.07,160907,,,A*79
$GPGGA,003903.000,3047.0776,N,09550.3019,W,1,7,1.22,62.7,M,-23.6,M,,*5C
$GPGSA,A,3,04,17,02,28,09,20,12,,,,,,2.23,1.22,1.86*0D
$GPGSV,2,1,08,04,85,206,51,51,52,201,39,17,46,044,48,02,45,222,47*7B
$GPGSV,2,2,08,28,38,123,43,09,32,291,46,20,14,051,45,12,12,315,45*73
$GPRMC,003903.000,A,3047.0776,N,09550.3019,W,4.80,1.48,160907,,,A*79
$GPGGA,003904.000,3047.0789,N,09550.3019,W,1,7,1.22,62.9,M,-23.6,M,,*55
$GPGSA,A,3,04,17,02,28,09,20,12,,,,,,2.22,1.22,1.86*0C
$GPGSV,2,1,08,04,85,206,51,51,52,201,40,17,46,044,49,02,45,222,47*74
$GPGSV,2,2,08,28,38,123,43,09,32,291,45,20,14,051,38,12,12,315,46*79
$GPRMC,003904.000,A,3047.0789,N,09550.3019,W,4.84,2.74,160907,,,A*76
$GPGGA,003905.000,3047.0805,N,09550.3020,W,1,7,1.22,63.1,M,-23.6,M,,*5C
$GPGSA,A,3,04,17,02,28,09,20,12,,,,,,2.23,1.22,1.86*0D
$GPGSV,2,1,08,04,85,206,51,51,52,201,41,17,46,044,49,02,45,222,47*75
$GPGSV,2,2,08,28,38,123,43,09,32,291,44,20,14,051,38,12,12,316,46*7B
$GPRMC,003905.000,A,3047.0805,N,09550.3020,W,4.72,358.56,160907,,,A*73
$GPGGA,003906.000,3047.0818,N,09550.3021,W,1,7,1.22,63.0,M,-23.6,M,,*53
$GPGSA,A,3,04,17,02,28,09,20,12,,,,,,2.23,1.22,1.86*0D
$GPGSV,2,1,08,04,85,206,51,51,52,201,41,17,46,044,49,02,45,222,47*75
$GPGSV,2,2,08,28,38,123,43,09,32,291,43,20,14,051,39,12,12,316,46*7D
$GPRMC,003906.000,A,3047.0818,N,09550.3021,W,4.77,355.71,160907,,,A*70
$GPGGA,003907.000,3047.0833,N,09550.3022,W,1,7,1.22,62.7,M,-23.6,M,,*5E
$GPGSA,A,3,04,17,02,28,09,20,12,,,,,,2.23,1.22,1.86*0D
$GPGSV,2,1,08,04,85,206,51,51,52,201,42,17,46,044,49,02,45,222,48*79
$GPGSV,2,2,08,28,38,123,43,09,32,291,43,20,14,051,40,12,12,316,46*73
$GPRMC,003907.000,A,3047.0833,N,09550.3022,W,4.93,1.59,160907,,,A*79
$GPGGA,003908.000,3047.0847,N,09550.3025,W,1,7,1.22,62.6,M,-23.6,M,,*54
$GPGSA,A,3,04,17,02,28,09,20,12,,,,,,2.23,1.22,1.86*0D
$GPGSV,2,1,08,04,85,206,51,51,52,201,43,17,46,044,49,02,45,222,48*78
$GPGSV,2,2,08,28,38,123,43,09,32,291,42,20,14,051,41,12,12,316,47*72
$GPRMC,003908.000,A,3047.0847,N,09550.3025,W,4.64,357.37,160907,,,A*72
$GPGGA,003909.000,3047.0860,N,09550.3025,W,1,7,1.22,62.5,M,-23.6,M,,*53
$GPGSA,A,3,04,17,02,28,09,20,12,,,,,,2.23,1.22,1.86*0D
$GPGSV,2,1,08,04,85,206,51,51,52,201,44,17,46,044,49,02,45,222,48*7F
$GPGSV,2,2,08,28,38,123,43,09,32,291,43,20,14,051,41,12,12,316,47*73
$GPRMC,003909.000,A,3047.0860,N,09550.3025,W,4.26,359.60,160907,,,A*7C
$GPGGA,003910.000,3047.0873,N,09550.3027,W,1,7,1.22,62.8,M,-23.6,M,,*56
$GPGSA,A,3,04,17,02,28,09,20,12,,,,,,2.23,1.22,1.86*0D
$GPGSV,2,1,08,04,85,206,51,51,52,201,44,17,46,045,49,02,45,222,48*7E
$GPGSV,2,2,08,28,38,123,43,09,32,291,43,20,14,051,42,12,12,316,47*70
$GPRMC,003910.000,A,3047.0873,N,09550.3027,W,4.25,353.92,160907,,,A*70
$GPGGA,003911.000,3047.0885,N,09550.3030,W,1,7,1.22,62.9,M,-23.6,M,,*59
$GPGSA,A,3,04,17,02,28,09,20,12,,,,,,2.23,1.22,1.86*0D
$GPGSV,2,1,08,04,85,206,51,51,52,201,45,17,46,045,49,02,45,222,49*7E
$GPGSV,2,2,08,28,38,123,43,09,32,291,43,20,14,051,42,12,12,316,48*7F
$GPRMC,003911.000,A,3047.0885,N,09550.3030,W,4.14,358.82,160907,,,A*76
$GPGGA,003912.000,3047.0896,N,09550.3029,W,1,7,1.22,63.0,M,-23.6,M,,*58
$GPGSA,A,3,04,17,02,28,09,20,12,,,,,,2.23,1.22,1.86*0D
$GPGSV,2,1,08,04,85,206,51,51,52,201,44,17,46,045,49,02,45,222,49*7F
$GPGSV,2,2,08,28,38,123,43,09,32,291,43,20,14,051,41,12,12,316,48*7C
$GPRMC,003912.000,A,3047.0896,N,09550.3029,W,4.00,0.23,160907,,,A*7F
$GPGGA,003913.000,3047.0907,N,09550.3029,W,1,7,1.22,63.2,M,-23.6,M,,*52
$GPGSA,A,3,04,17,02,28,09,20,12,,,,,,2.23,1.22,1.86*0D
$GPGSV,2,1,08,04,85,206,51,51,52,201,43,17,46,045,49,02,45,222,49*78
$GPGSV,2,2,08,28,38,123,43,09,32,291,43,20,14,051,41,12,12,316,48*7C
$GPRMC,003913.000,A,3047.0907,N,09550.3029,W,3.89,354.89,160907,,,A*73
$GPGGA,003914.000,3047.0916,N,09550.3029,W,1,7,1.22,63.3,M,-23.6,M,,*54
$GPGSA,A,3,04,17,02,28,09,20,12,,,,,,2.23,1.22,1.86*0D
$GPGSV,2,1,08,04,85,206,51,51,52,201,44,17,46,045,49,02,45,222,49*7F
$GPGSV,2,2,08,28,38,123,43,09,32,291,43,20,14,051,41,12,12,316,48*7C
$GPRMC,003914.000,A,3047.0916,N,09550.3029,W,3.94,354.49,160907,,,A*74
$GPGGA,003915.000,3047.0926,N,09550.3031,W,1,7,1.22,63.4,M,-23.6,M,,*58
$GPGSA,A,3,04,17,02,28,09,20,12,,,,,,2.23,1.22,1.86*0D
$GPGSV,2,1,08,04,85,206,51,51,52,201,44,17,46,045,49,02,45,222,49*7F
$GPGSV,2,2,08,28,38,123,43,09,32,291,43,20,14,051,40,12,12,316,48*7D
$GPRMC,003915.000,A,3047.0926,N,09550.3031,W,4.10,0.09,160907,,,A*72
$GPGGA,003916.000,3047.0939,N,09550.3030,W,1,7,1.22,63.5,M,-23.6,M,,*55
$GPGSA,A,3,04,17,02,28,09,20,12,,,,,,2.23,1.22,1.86*0D
$GPGSV,2,1,08,04,85,206,51,51,52,201,44,17,46,045,49,02,45,222,49*7F
$GPGSV,2,2,08,28,38,123,43,09,32,291,42,20,14,051,40,12,12,316,48*7C
$GPRMC,003916.000,A,3047.0939,N,09550.3030,W,4.63,355.54,160907,,,A*71
$GPGGA,003917.000,3047.0951,N,09550.3030,W,1,7,1.22,63.6,M,-23.6,M,,*59
$GPGSA,A,3,04,17,02,28,09,20,12,,,,,,2.23,1.22,1.86*0D
$GPGSV,2,1,08,04,85,206,51,51,52,201,45,17,46,045,49,02,45,222,49*7E
$GPGSV,2,2,08,28,38,123,42,09,32,291,43,20,14,051,40,12,12,316,48*7C
$GPRMC,003917.000,A,3047.0951,N,09550.3030,W,4.84,355.11,160907,,,A*76
$GPGGA,003918.000,3047.0965,N,09550.3031,W,1,7,1.22,63.8,M,-23.6,M,,*5E
$GPGSA,A,3,04,17,02,28,09,20,12,,,,,,2.22,1.22,1.86*0C
$GPGSV,2,1,08,04,85,206,51,51,52,201,45,17,46,045,49,02,45,222,49*7E
$GPGSV,2,2,08,28,38,123,42,09,32,291,43,20,14,051,41,12,12,316,48*7D
$GPRMC,003918.000,A,3047.0965,N,09550.3031,W,4.94,351.00,160907,,,A*7A
$GPGGA,003919.000,3047.0976,N,09550.3034,W,1,7,1.22,63.6,M,-23.6,M,,*56
$GPGSA,A,3,04,17,02,28,09,20,12,,,,,,2.23,1.22,1.86*0D
$GPGSV,2,1,08,04,85,206,51,51,52,201,45,17,46,045,50,02,45,222,49*76
$GPGSV,2,2,08,28,38,123,42,09,32,291,44,20,14,051,41,12,12,316,48*7A
$GPRMC,003919.000,A,3047.0976,N,09550.3034,W,5.27,350.32,160907,,,A*75
$GPGGA,003920.000,3047.0992,N,09550.3035,W,1,7,1.22,64.2,M,-23.6,M,,*54
$GPGSA,A,3,04,17,02,28,09,20,12,,,,,,2.23,1.22,1.86*0D
$GPGSV,2,1,08,04,85,206,51,51,52,201,44,17,46,045,49,02,45,222,49*7F
$GPGSV,2,2,08,28,38,123,42,09,32,291,45,20,14,051,42,12,12,316,48*78
$GPRMC,003920.000,A,3047.0992,N,09550.3035,W,5.18,2.87,160907,,,A*72
$GPGGA,003921.000,3047.1003,N,09550.3034,W,1,7,1.22,64.6,M,-23.6,M,,*50
$GPGSA,A,3,04,17,02,28,09,20,12,,,,,,2.23,1.22,1.86*0D
$GPGSV,2,1,08,04,85,206,51,51,52,201,42,17,46,045,49,02,45,222,49*79
$GPGSV,2,2,08,28,38,123,42,09,32,291,44,20,14,051,41,12,12,316,48*7A
$GPRMC,003921.000,A,3047.1003,N,09550.3034,W,4.63,0.25,160907,,,A*75
$GPGGA,003922.000,3047.1016,N,09550.3035,W,1,7,1.22,64.7,M,-23.6,M,,*57
$GPGSA,A,3,04,17,02,28,09,20,12,,,,,,2.23,1.22,1.87*0C
$GPGSV,2,1,08,04,85,206,51,51,52,201,43,17,46,045,49,02,45,222,49*78
$GPGSV,2,2,08,28,38,123,42,09,32,291,43,20,14,051,40,12,12,316,48*7C
$GPRMC,003922.000,A,3047.1016,N,09550.3035,W,4.33,356.20,160907,,,A*73
$GPGGA,003923.000,3047.1026,N,09550.3035,W,1,7,1.22,64.5,M,-23.6,M,,*57
$GPGSA,A,3,04,17,02,28,09,20,12,,,,,,2.23,1.22,1.86*0D
$GPGSV,2,1,08,04,85,206,51,51,52,201,43,17,46,045,49,02,45,222,49*78
$GPGSV,2,2,08,28,38,123,42,09,32,291,43,20,14,051,41,12,12,316,48*7D
$GPRMC,003923.000,A,3047.1026,N,09550.3035,W,3.50,356.43,160907,,,A*76
$GPGGA,003924.000,3047.1036,N,09550.3036,W,1,7,1.22,64.4,M,-23.6,M,,*53
$GPGSA,A,3,04,17,02,28,09,20,12,,,,,,2.23,1.22,1.86*0D
$GPGSV,2,1,08,04,85,206,51,51,52,201,42,17,46,045,49,02,45,222,49*79
$GPGSV,2,2,08,28,38,123,43,09,32,291,45,20,14,051,42,12,12,316,48*79
$GPRMC,003924.000,A,3047.1036,N,09550.3036,W,3.44,345.58,160907,,,A*7E
$GPGGA,003925.000,3047.1045,N,09550.3036,W,2,7,1.22,64.1,M,-23.6,M,0000,0000*50
$GPGSA,A,3,04,17,02,28,09,20,12,,,,,,2.23,1.22,1.86*0D
$GPGSV,2,1,08,04,85,206,51,51,52,201,43,17,46,045,50,02,45,222,49*70
$GPGSV,2,2,08,28,38,123,41,09,32,291,46,20,14,051,42,12,12,316,47*77
$GPRMC,003925.000,A,3047.1045,N,09550.3036,W,3.12,342.07,160907,,,D*70
$GPGGA,003926.000,3047.1052,N,09550.3037,W,2,7,1.07,63.3,M,-23.6,M,0000,0000*56
$GPGSA,A,3,04,17,02,28,09,20,12,,,,,,1.39,1.07,0.88*0D
$GPGSV,2,1,08,04,85,206,50,51,52,201,45,17,46,045,50,02,45,222,41*7F
$GPGSV,2,2,08,28,38,123,43,09,32,291,47,20,14,051,44,12,12,316,47*72
$GPRMC,003926.000,A,3047.1052,N,09550.3037,W,3.59,343.20,160907,,,D*7F
$GPGGA,003927.000,3047.1063,N,09550.3044,W,2,7,1.08,63.5,M,-23.6,M,0000,0000*58
$GPGSA,A,3,04,17,02,28,09,20,12,,,,,,1.39,1.08,0.88*02
$GPGSV,2,1,08,04,85,206,50,51,52,201,46,17,46,045,50,02,45,223,42*7E
$GPGSV,2,2,08,28,38,123,44,09,32,291,48,20,14,051,45,12,12,316,46*7A
$GPRMC,003927.000,A,3047.1063,N,09550.3044,W,3.46,344.15,160907,,,D*77
$GPGGA,003928.000,3047.1075,N,09550.3046,W,2,7,1.07,64.0,M,-23.6,M,0000,0000*5F
$GPGSA,A,3,04,17,02,28,09,20,12,,,,,,1.39,1.07,0.88*0D
$GPGSV,2,1,08,04,85,206,50,51,52,201,47,17,46,045,50,02,45,223,42*7F
$GPGSV,2,2,08,28,38,123,44,09,32,291,48,20,14,051,46,12,12,316,47*78
$GPRMC,003928.000,A,3047.1075,N,09550.3046,W,2.65,348.37,160907,,,D*71
$GPGGA,003929.000,3047.1083,N,09550.3047,W,2,7,1.22,64.2,M,-23.6,M,0000,0000*53
$GPGSA,A,3,04,17,02,28,09,20,12,,,,,,2.23,1.22,1.86*0D
$GPGSV,2,1,08,04,86,206,50,51,52,201,47,17,46,045,50,02,45,223,50*7F
$GPGSV,2,2,08,28,38,123,36,09,32,291,48,20,14,051,46,12,12,316,46*7C
$GPRMC,003929.000,A,3047.1083,N,09550.3047,W,2.90,351.75,160907,,,D*7C
$GPGGA,003930.000,3047.1093,N,09550.3049,W,2,7,1.22,64.2,M,-23.6,M,0000,0000*54
$GPGSA,A,3,04,17,02,28,09,20,12,,,,,,2.23,1.22,1.86*0D
$GPGSV,2,1,08,04,86,206,50,51,52,201,46,17,46,045,50,02,45,223,50*7E
$GPGSV,2,2,08,28,38,123,37,09,32,291,47,20,14,051,45,12,12,316,47*70
$GPRMC,003930.000,A,3047.1093,N,09550.3049,W,3.61,2.97,160907,,,D*7D
$GPGGA,003931.000,3047.1104,N,09550.3048,W,2,7,1.22,64.1,M,-23.6,M,0000,0000*58
$GPGSA,A,3,04,17,02,28,09,20,12,,,,,,2.23,1.22,1.86*0D
$GPGSV,2,1,08,04,86,206,50,51,52,201,38,17,46,045,49,02,45,223,49*77
$GPGSV,2,2,08,28,38,123,39,09,32,291,46,20,14,051,44,12,12,316,39*77
$GPRMC,003931.000,A,3047.1104,N,09550.3048,W,4.05,17.92,160907,,,D*46
$GPGGA,003932.000,3047.1115,N,09550.3044,W,2,7,1.22,64.2,M,-23.6,M,0000,0000*54
$GPGSA,A,3,04,17,02,28,09,20,12,,,,,,2.22,1.22,1.86*0C
$GPGSV,2,1,08,04,86,206,50,51,52,201,39,17,46,045,49,02,45,223,48*77
$GPGSV,2,2,08,28,38,123,40,09,32,291,48,20,14,051,45,12,12,316,40*78
$GPRMC,003932.000,A,3047.1115,N,09550.3044,W,4.01,29.15,160907,,,D*4F
$GPGGA,003933.000,3047.1125,N,09550.3038,W,2,7,1.22,64.2,M,-23.6,M,0000,0000*5D
$GPGSA,A,3,04,17,02,28,09,20,12,,,,,,2.23,1.22,1.86*0D
$GPGSV,2,1,08,04,86,206,50,51,52,201,29,17,46,045,49,02,45,223,46*78
$GPGSV,2,2,08,28,38,123,49,09,32,291,49,20,14,051,45,12,12,316,41*71
$GPRMC,003933.000,A,3047.1125,N,09550.3038,W,4.36,30.77,160907,,,D*4E
$GPGGA,003934.000,3047.1135,N,09550.3030,W,2,7,1.22,63.6,M,-23.6,M,0000,0000*50
$GPGSA,A,3,04,17,02,28,09,20,12,,,,,,2.23,1.22,1.86*0D
$GPGSV,2,1,08,04,86,206,50,51,52,201,38,17,46,045,50,02,45,223,44*72
$GPGSV,2,2,08,28,38,123,49,09,32,291,49,20,14,051,45,12,12,316,42*72
$GPRMC,003934.000,A,3047.1135,N,09550.3030,W,4.19,29.66,160907,,,D*45
$GPGGA,003935.000,3047.1147,N,09550.3023,W,2,7,1.22,63.8,M,-23.6,M,0000,0000*58
$GPGSA,A,3,04,17,02,28,09,20,12,,,,,,2.23,1.22,1.86*0D
$GPGSV,2,1,08,04,86,206,50,51,52,201,38,17,46,045,50,02,45,223,43*75
$GPGSV,2,2,08,28,38,123,50,09,32,291,49,20,14,051,45,12,12,316,43*7B
$GPRMC,003935.000,A,3047.1147,N,09550.3023,W,4.30,28.99,160907,,,D*49
$GPGGA,003936.000,3047.1157,N,09550.3016,W,2,7,1.22,63.2,M,-23.6,M,0000,0000*56
$GPGSA,A,3,04,17,02,28,09,20,12,,,,,,2.23,1.22,1.86*0D
$GPGSV,2,1,08,04,86,206,50,51,52,201,37,17,46,045,50,02,45,223,42*7B
$GPGSV,2,2,08,28,38,123,50,09,32,291,48,20,14,051,45,12,12,316,42*7B
$GPRMC,003936.000,A,3047.1157,N,09550.3016,W,4.44,27.95,160907,,,D*4D
$GPGGA,003937.000,3047.1170,N,09550.3008,W,2,7,1.22,63.0,M,-23.6,M,0000,0000*5F
$GPGSA,A,3,04,17,02,28,09,20,12,,,,,,2.23,1.22,1.86*0D
$GPGSV,2,1,08,04,86,206,50,51,52,201,37,17,46,045,50,02,45,223,42*7B
$GPGSV,2,2,08,28,38,123,50,09,32,291,48,20,14,051,45,12,12,316,43*7A
$GPRMC,003937.000,A,3047.1170,N,09550.3008,W,4.89,33.27,160907,,,D*4B
$GPGGA,003938.000,3047.1182,N,09550.2999,W,2,7,1.22,62.7,M,-23.6,M,0000,0000*5B
$GPGSA,A,3,04,17,02,28,09,20,12,,,,,,2.23,1.22,1.86*0D
$GPGSV,2,1,08,04,86,206,50,51,52,201,38,17,46,045,51,02,45,223,41*76
$GPGSV,2,2,08,28,38,123,50,09,32,291,48,20,14,051,45,12,12,316,43*7A
$GPRMC,003938.000,A,3047.1182,N,09550.2999,W,4.88,32.94,160907,,,D*41
$GPGGA,003939.000,3047.1192,N,09550.2990,W,2,7,1.22,62.5,M,-23.6,M,0000,0000*50
$GPGSA,A,3,04,17,02,28,09,20,12,,,,,,2.23,1.22,1.86*0D
$GPGSV,2,1,08,04,86,206,50,51,52,201,38,17,46,045,51,02,45,223,41*76
$GPGSV,2,2,08,28,38,123,50,09,32,291,48,20,14,051,45,12,12,316,43*7A
$GPRMC,003939.000,A,3047.1192,N,09550.2990,W,4.33,33.30,160907,,,D*47
$GPGGA,003940.000,3047.1205,N,09550.2981,W,2,7,1.22,62.7,M,-23.6,M,0000,0000*51
$GPGSA,A,3,04,17,02,28,09,20,12,,,,,,2.23,1.22,1.86*0D
$GPGSV,2,1,08,04,86,206,50,51,52,201,38,17,46,045,51,02,45,223,41*76
$GPGSV,2,2,08,28,38,123,50,09,32,291,48,20,14,051,45,12,12,316,44*7D
$GPRMC,003940.000,A,3047.1205,N,09550.2981,W,4.02,25.82,160907,,,D*48
$GPGGA,003941.000,3047.1215,N,09550.2974,W,2,7,1.22,62.2,M,-23.6,M,0000,0000*5E
$GPGSA,A,3,04,17,02,28,09,20,12,,,,,,2.23,1.22,1.86*0D
$GPGSV,2,1,08,04,86,206,50,51,52,201,37,17,46,045,51,02,45,223,41*79
$GPGSV,2,2,08,28,38,123,49,09,32,291,48,20,14,051,44,12,12,316,45*75
$GPRMC,003941.000,A,3047.1215,N,09550.2974,W,3.88,25.92,160907,,,D*46
$GPGGA,003942.000,3047.1228,N,09550.2967,W,2,7,1.07,62.5,M,-23.6,M,0000,0000*51
$GPGSA,A,3,04,17,02,28,09,20,12,,,,,,1.39,1.07,0.88*0D
$GPGSV,2,1,08,04,86,206,50,51,52,201,36,17,45,045,51,02,45,223,41*7B
$GPGSV,2,2,08,28,38,123,48,09,32,291,48,20,14,051,43,12,12,316,45*73
$GPRMC,003942.000,A,3047.1228,N,09550.2967,W,4.26,23.04,160907,,,D*43
$GPGGA,003943.000,3047.1240,N,09550.2960,W,2,7,1.22,62.3,M,-23.6,M,0000,0000*58
$GPGSA,A,3,04,17,02,28,09,20,12,,,,,,2.23,1.22,1.86*0D
$GPGSV,2,1,08,04,86,206,50,51,52,201,34,17,45,045,51,02,45,223,41*79
$GPGSV,2,2,08,28,38,123,48,09,32,291,48,20,14,051,44,12,12,316,45*74
$GPRMC,003943.000,A,3047.1240,N,09550.2960,W,4.60,24.74,160907,,,D*49
$GPGGA,003944.000,3047.1253,N,09550.2953,W,2,7,1.22,62.4,M,-23.6,M,0000,0000*5A
$GPGSA,A,3,04,17,02,28,09,20,12,,,,,,2.22,1.22,1.86*0C
$GPGSV,2,1,08,04,86,206,50,51,52,201,33,17,45,045,51,02,45,223,41*7E
$GPGSV,2,2,08,28,38,123,47,09,32,291,49,20,14,051,44,12,12,316,45*7A
$GPRMC,003944.000,A,3047.1253,N,09550.2953,W,4.71,20.63,160907,,,D*4E
$GPGGA,003945.000,3047.1267,N,09550.2946,W,2,7,1.22,62.8,M,-23.6,M,0000,0000*54
$GPGSA,A,3,04,17,02,28,09,20,12,,,,,,2.23,1.22,1.86*0D
$GPGSV,2,1,08,04,86,206,50,51,52,201,28,17,45,045,51,02,45,223,41*74
$GPGSV,2,2,08,28,38,123,47,09,32,291,49,20,14,051,44,12,12,316,45*7A
$GPRMC,003945.000,A,3047.1267,N,09550.2946,W,4.68,21.85,160907,,,D*4D
$GPGGA,003946.000,3047.1279,N,09550.2939,W,2,7,1.22,63.0,M,-23.6,M,0000,0000*59
$GPGSA,A,3,04,17,02,28,09,20,12,,,,,,2.23,1.22,1.86*0D
$GPGSV,2,1,08,04,86,206,50,51,52,201,31,17,45,045,51,02,45,223,42*7F
$GPGSV,2,2,08,28,38,123,46,09,32,291,49,20,14,051,45,12,12,316,45*7A
$GPRMC,003946.000,A,3047.1279,N,09550.2939,W,4.89,18.56,160907,,,D*42
$GPGGA,003947.000,3047.1293,N,09550.2933,W,2,7,1.22,63.3,M,-23.6,M,0000,0000*55
$GPGSA,A,3,04,17,02,28,09,20,12,,,,,,2.23,1.22,1.86*0D
$GPGSV,2,1,08,04,86,206,50,51,52,201,30,17,45,045,51,02,45,223,43*7F
$GPGSV,2,2,08,28,38,123,46,09,32,291,49,20,14,051,45,12,12,316,45*7A
$GPRMC,003947.000,A,3047.1293,N,09550.2933,W,4.79,23.63,160907,,,D*4C
$GPGGA,003948.000,3047.1303,N,09550.2926,W,2,7,1.22,63.4,M,-23.6,M,0000,0000*51
$GPGSA,A,3,04,17,02,28,09,20,12,,,,,,2.23,1.22,1.86*0D
$GPGSV,2,1,08,04,86,206,50,51,52,201,30,17,45,045,51,02,45,223,43*7F
$GPGSV,2,2,08,28,38,123,46,09,32,291,49,20,14,051,45,12,12,316,45*7A
$GPRMC,003948.000,A,3047.1303,N,09550.2926,W,4.71,22.84,160907,,,D*4F
$GPGGA,003949.000,3047.1314,N,09550.2921,W,2,7,1.22,63.6,M,-23.6,M,0000,0000*53
$GPGSA,A,3,04,17,02,28,09,20,12,,,,,,2.23,1.22,1.86*0D
$GPGSV,2,1,08,04,86,206,50,51,52,201,30,17,45,045,51,02,45,223,43*7F
$GPGSV,2,2,08,28,38,123,46,09,32,291,49,20,14,051,45,12,12,316,45*7A
$GPRMC,003949.000,A,3047.1314,N,09550.2921,W,4.25,30.30,160907,,,D*42
$GPGGA,003950.000,3047.1326,N,09550.2914,W,2,7,1.22,63.9,M,-23.6,M,0000,0000*53
$GPGSA,A,3,04,17,02,28,09,20,12,,,,,,2.23,1.22,1.86*0D
$GPGSV,2,1,08,04,86,206,50,51,52,201,32,17,45,045,51,02,45,223,43*7D
$GPGSV,2,2,08,28,38,123,46,09,32,291,49,20,14,051,45,12,12,316,45*7A
$GPRMC,003950.000,A,3047.1326,N,09550.2914,W,4.54,28.24,160907,,,D*47
$GPGGA,003951.000,3047.1337,N,09550.2907,W,2,7,1.22,63.7,M,-23.6,M,0000,0000*5E
$GPGSA,A,3,04,17,02,28,09,20,12,,,,,,2.23,1.22,1.86*0D
$GPGSV,2,1,08,04,86,206,50,51,52,201,32,17,45,045,51,02,45,223,43*7D
$GPGSV,2,2,08,28,38,123,46,09,32,291,49,20,14,051,45,12,12,316,45*7A
$GPRMC,003951.000,A,3047.1337,N,09550.2907,W,4.91,23.83,160907,,,D*4B
$GPGGA,003952.000,3047.1349,N,09550.2903,W,2,7,1.22,63.6,M,-23.6,M,0000,0000*51
$GPGSA,A,3,04,17,02,28,09,20,12,,,,,,2.23,1.22,1.86*0D
$GPGSV,2,1,08,04,86,206,50,51,52,201,32,17,45,045,51,02,45,223,43*7D
$GPGSV,2,2,08,28,38,123,47,09,32,291,49,20,14,051,45,12,12,316,45*7B
$GPRMC,003952.000,A,3047.1349,N,09550.2903,W,4.99,25.11,160907,,,D*40
$GPGGA,003953.000,3047.1361,N,09550.2897,W,2,7,1.22,63.4,M,-23.6,M,0000,0000*54
$GPGSA,A,3,04,17,02,28,09,20,12,,,,,,2.23,1.22,1.86*0D
$GPGSV,2,1,08,04,86,206,50,51,52,201,33,17,45,045,51,02,45,223,42*7D
$GPGSV,2,2,08,28,37,123,47,09,32,291,49,20,14,051,45,12,12,316,45*74
$GPRMC,003953.000,A,3047.1361,N,09550.2897,W,4.58,26.05,160907,,,D*4C
$GPGGA,003954.000,3047.1372,N,09550.2891,W,2,7,1.22,63.5,M,-23.6,M,0000,0000*56
$GPGSA,A,3,04,17,02,28,09,20,12,,,,,,2.23,1.22,1.86*0D
$GPGSV,2,1,08,04,86,206,50,51,52,201,34,17,45,045,51,02,45,223,42*7A
$GPGSV,2,2,08,28,37,123,48,09,32,291,49,20,14,051,45,12,12,316,45*7B
$GPRMC,003954.000,A,3047.1372,N,09550.2891,W,4.51,30.23,160907,,,D*45
$GPGGA,003955.000,3047.1384,N,09550.2884,W,2,7,1.22,63.4,M,-23.6,M,0000,0000*5B
$GPGSA,A,3,04,17,02,28,09,20,12,,,,,,2.23,1.22,1.86*0D
$GPGSV,2,1,08,04,86,206,50,51,52,201,35,17,45,045,51,02,45,223,42*7B
$GPGSV,2,2,08,28,37,123,48,09,32,291,49,20,14,051,45,12,12,316,44*7A
$GPRMC,003955.000,A,3047.1384,N,09550.2884,W,4.97,28.84,160907,,,D*47
$GPGGA,003956.000,3047.1395,N,09550.2877,W,2,7,1.22,63.2,M,-23.6,M,0000,0000*52
$GPGSA,A,3,04,17,02,28,09,20,12,,,,,,2.22,1.22,1.86*0C
$GPGSV,2,1,08,04,86,206,50,51,52,201,35,17,45,045,51,02,45,223,42*7B
$GPGSV,2,2,08,28,37,123,48,09,32,291,49,20,14,051,45,12,12,316,44*7A
$GPRMC,003956.000,A,3047.1395,N,09550.2877,W,5.21,30.46,160907,,,D*43
$GPGGA,003957.000,3047.1407,N,09550.2869,W,2,7,1.22,62.7,M,-23.6,M,0000,0000*54
$GPGSA,A,3,04,17,02,28,09,20,12,,,,,,2.23,1.22,1.86*0D
$GPGSV,2,1,08,04,86,206,50,51,52,201,37,17,45,045,51,02,45,223,42*79
$GPGSV,2,2,08,28,37,123,48,09,32,291,48,20,14,051,45,12,12,316,44*7B
$GPRMC,003957.000,A,3047.1407,N,09550.2869,W,5.20,31.28,160907,,,D*49
$GPGGA,003958.000,3047.1421,N,09550.2861,W,2,7,1.22,62.7,M,-23.6,M,0000,0000*57
$GPGSA,A,3,04,17,02,28,09,20,12,,,,,,2.23,1.22,1.86*0D
$GPGSV,2,1,08,04,86,206,50,51,52,201,38,17,45,045,51,02,45,223,42*76
$GPGSV,2,2,08,28,37,123,48,09,32,291,48,20,14,051,45,12,12,316,44*7B
$GPRMC,003958.000,A,3047.1421,N,09550.2861,W,5.19,23.04,160907,,,D*4D
$GPGGA,003959.000,3047.1434,N,09550.2855,W,2,7,1.22,62.4,M,-23.6,M,0000,0000*56
$GPGSA,A,3,04,17,02,28,09,20,12,,,,,,2.23,1.22,1.86*0D
$GPGSV,2,1,08,04,86,206,50,51,52,201,37,02,46,223,42,17,45,045,51*7A
$GPGSV,2,2,08,28,37,123,48,09,32,291,48,20,14,051,45,12,12,316,44*7B
$GPRMC,003959.000,A,3047.1434,N,09550.2855,W,5.14,23.85,160907,,,D*4B
$GPGGA,004000.000,3047.1447,N,09550.2847,W,2,7,1.22,62.3,M,-23.6,M,0000,0000*54
$GPGSA,A,3,04,17,02,28,09,20,12,,,,,,2.23,1.22,1.86*0D
$GPGSV,2,1,08,04,86,206,50,51,52,201,37,02,46,223,42,17,45,045,51*7A
$GPGSV,2,2,08,28,37,123,48,09,32,291,48,20,14,051,45,12,12,316,44*7B
$GPRMC,004000.000,A,3047.1447,N,09550.2847,W,5.22,29.22,160907,,,D*4C
$GPGGA,004001.000,3047.1459,N,09550.2839,W,2,7,1.22,62.4,M,-23.6,M,0000,0000*54
$GPGSA,A,3,04,17,02,28,09,20,12,,,,,,2.23,1.22,1.86*0D
$GPGSV,2,1,08,04,86,207,50,51,52,201,37,02,46,223,41,17,45,045,51*78
$GPGSV,2,2,08,28,37,123,48,09,32,291,48,20,14,051,45,12,12,316,44*7B
$GPRMC,004001.000,A,3047.1459,N,09550.2839,W,5.10,27.22,160907,,,D*44
$GPGGA,004002.000,3047.1471,N,09550.2831,W,2,7,1.22,62.4,M,-23.6,M,0000,0000*55
$GPGSA,A,3,04,17,02,28,09,20,12,,,,,,2.22,1.22,1.86*0C
$GPGSV,2,1,08,04,86,207,50,51,52,201,38,02,46,223,42,17,45,045,51*74
$GPGSV,2,2,08,28,37,123,48,09,32,291,48,20,14,051,45,12,12,316,44*7B
$GPRMC,004002.000,A,3047.1471,N,09550.2831,W,4.73,29.11,160907,,,D*4F
$GPGGA,004003.000,3047.1484,N,09550.2822,W,2,7,1.22,63.0,M,-23.6,M,0000,0000*59
$GPGSA,A,3,04,17,02,28,09,20,12,,,,,,2.23,1.22,1.86*0D
$GPGSV,2,1,08,04,86,207,50,51,52,201,38,02,46,223,42,17,45,045,51*74
$GPGSV,2,2,08,28,37,123,48,09,32,291,48,20,14,051,45,12,12,316,44*7B
$GPRMC,004003.000,A,3047.1484,N,09550.2822,W,4.75,32.32,160907,,,D*4B
$GPGGA,004004.000,3047.1493,N,09550.2812,W,2,7,1.22,63.0,M,-23.6,M,0000,0000*5B
$GPGSA,A,3,04,17,02,28,09,20,12,,,,,,2.23,1.22,1.86*0D
$GPGSV,2,1,08,04,86,207,50,51,52,201,38,02,46,223,42,17,45,045,51*74
$GPGSV,2,2,08,28,37,123,48,09,32,291,48,20,14,051,45,12,12,316,43*7C
$GPRMC,004004.000,A,3047.1493,N,09550.2812,W,4.80,35.22,160907,,,D*45
$GPGGA,004005.000,3047.1504,N,09550.2803,W,2,7,1.22,62.9,M,-23.6,M,0000,0000*5D
$GPGSA,A,3,04,17,02,28,09,20,12,,,,,,2.23,1.22,1.86*0D
$GPGSV,2,1,08,04,86,207,50,51,52,201,39,02,46,223,42,17,45,045,51*75
$GPGSV,2,2,08,28,37,123,49,09,32,291,47,20,14,051,44,12,12,316,43*73
$GPRMC,004005.000,A,3047.1504,N,09550.2803,W,4.92,35.60,160907,,,D*4E
$GPGGA,004006.000,3047.1519,N,09550.2792,W,2,7,1.22,63.0,M,-23.6,M,0000,0000*5D
$GPGSA,A,3,04,17,02,28,09,20,12,,,,,,2.23,1.22,1.86*0D
$GPGSV,2,1,08,04,86,207,50,51,52,201,39,02,46,223,42,17,45,045,51*75
$GPGSV,2,2,08,28,37,123,50,09,32,290,47,20,14,051,44,12,12,316,43*7A
$GPRMC,004006.000,A,3047.1519,N,09550.2792,W,4.99,33.04,160907,,,D*49
$GPGGA,004007.000,3047.1530,N,09550.2781,W,2,7,1.22,62.3,M,-23.6,M,0000,0000*57
$GPGSA,A,3,04,17,02,28,09,20,12,,,,,,2.22,1.22,1.86*0C
$GPGSV,2,1,08,04,86,207,50,51,52,201,38,02,46,223,42,17,45,045,51*74
$GPGSV,2,2,08,28,37,123,50,09,32,290,46,20,14,051,44,12,12,316,43*7B
$GPRMC,004007.000,A,3047.1530,N,09550.2781,W,5.04,35.37,160907,,,D*42
$GPGGA,004008.000,3047.1545,N,09550.2769,W,2,7,1.22,62.7,M,-23.6,M,0000,0000*58
$GPGSA,A,3,04,17,02,28,09,20,12,,,,,,2.23,1.22,1.86*0D
$GPGSV,2,1,08,04,86,207,50,51,52,201,38,02,46,223,42,17,45,045,51*74
$GPGSV,2,2,08,28,37,123,51,09,32,290,46,20,14,051,44,12,12,316,43*7A
$GPRMC,004008.000,A,3047.1545,N,09550.2769,W,5.16,34.43,160907,,,D*48
$GPGGA,004009.000,3047.1556,N,09550.2756,W,2,7,1.22,61.8,M,-23.6,M,0000,0000*5B
$GPGSA,A,3,04,17,02,28,09,20,12,,,,,,2.22,1.22,1.86*0C
$GPGSV,2,1,08,04,86,207,50,51,52,201,37,02,46,223,42,17,45,045,51*7B
$GPGSV,2,2,08,28,37,123,51,09,32,290,46,20,14,051,44,12,12,316,43*7A
$GPRMC,004009.000,A,3047.1556,N,09550.2756,W,5.40,33.65,160907,,,D*47
$GPGGA,004010.000,3047.1570,N,09550.2745,W,2,7,1.22,61.4,M,-23.6,M,0000,0000*59
$GPGSA,A,3,04,17,02,28,09,20,12,,,,,,2.22,1.22,1.86*0C
$GPGSV,2,1,08,04,86,207,50,51,52,201,37,02,46,223,42,17,45,045,51*7B
$GPGSV,2,2,08,28,37,123,51,09,32,290,46,20,14,051,44,12,12,316,42*7B
$GPRMC,004010.000,A,3047.1570,N,09550.2745,W,5.66,29.64,160907,,,D*47
$GPGGA,004011.000,3047.1588,N,09550.2733,W,2,7,1.22,61.4,M,-23.6,M,0000,0000*5E
$GPGSA,A,3,04,17,02,28,09,20,12,,,,,,2.23,1.22,1.86*0D
$GPGSV,2,1,08,04,86,207,50,51,52,201,37,02,46,223,42,17,45,045,51*7B
$GPGSV,2,2,08,28,37,123,51,09,32,290,46,20,14,051,44,12,12,316,41*78
$GPRMC,004011.000,A,3047.1588,N,09550.2733,W,5.74,32.79,160907,,,D*45
$GPGGA,004012.000,3047.1597,N,09550.2721,W,2,7,1.22,61.0,M,-23.6,M,0000,0000*54
$GPGSA,A,3,04,17,02,28,09,20,12,,,,,,2.23,1.22,1.86*0D
$GPGSV,2,1,08,04,86,207,50,51,52,201,38,02,46,223,42,17,45,045,51*74
$GPGSV,2,2,08,28,37,123,51,09,32,290,46,20,14,051,44,12,12,316,41*78
$GPRMC,004012.000,A,3047.1597,N,09550.2721,W,5.86,36.04,160907,,,D*48
$GPGGA,004013.000,3047.1613,N,09550.2710,W,2,7,1.22,61.1,M,-23.6,M,0000,0000*59
$GPGSA,A,3,04,17,02,28,09,20,12,,,,,,2.23,1.22,1.86*0D
$GPGSV,2,1,08,04,86,207,50,51,52,201,39,02,46,223,41,17,45,045,51*76
$GPGSV,2,2,08,28,37,123,51,09,32,290,46,20,14,051,44,12,12,316,41*78
$GPRMC,004013.000,A,3047.1613,N,09550.2710,W,5.73,34.21,160907,,,D*4B
$GPGGA,004014.000,3047.1625,N,09550.2700,W,2,7,1.22,61.1,M,-23.6,M,0000,0000*5A
$GPGSA,A,3,04,17,02,28,09,20,12,,,,,,2.23,1.22,1.86*0D
$GPGSV,2,1,08,04,86,207,50,51,52,201,39,02,46,223,41,17,45,045,51*76
$GPGSV,2,2,08,28,37,123,51,09,32,290,46,20,14,051,44,12,12,316,41*78
$GPRMC,004014.000,A,3047.1625,N,09550.2700,W,5.41,35.42,160907,,,D*4D
$GPGGA,004015.000,3047.1637,N,09550.2689,W,2,7,1.22,61.1,M,-23.6,M,0000,0000*58
$GPGSA,A,3,04,17,02,28,09,20,12,,,,,,2.23,1.22,1.86*0D
$GPGSV,2,1,08,04,86,207,50,51,52,201,40,02,46,223,41,17,45,045,51*78
$GPGSV,2,2,08,28,37,123,51,09,32,290,46,20,14,051,44,12,12,316,41*78
$GPRMC,004015.000,A,3047.1637,N,09550.2689,W,5.67,34.87,160907,,,D*43
$GPGGA,004016.000,3047.1651,N,09550.2679,W,2,7,1.22,61.4,M,-23.6,M,0000,0000*51
$GPGSA,A,3,04,17,02,28,09,20,12,,,,,,2.23,1.22,1.86*0D
$GPGSV,2,1,08,04,86,207,50,51,52,201,40,02,46,223,41,17,45,045,51*78
$GPGSV,2,2,08,28,37,123,51,09,32,290,46,20,14,051,44,12,12,316,42*7B
$GPRMC,004016.000,A,3047.1651,N,09550.2679,W,5.69,38.18,160907,,,D*4B
$GPGGA,004017.000,3047.1662,N,09550.2669,W,2,7,1.22,60.9,M,-23.6,M,0000,0000*5D
$GPGSA,A,3,04,17,02,28,09,20,12,,,,,,2.23,1.22,1.86*0D
$GPGSV,2,1,08,04,86,207,50,51,52,201,40,02,46,223,40,17,45,045,51*79
$GPGSV,2,2,08,28,37,123,51,09,32,290,46,20,14,051,44,12,12,316,43*7A
$GPRMC,004017.000,A,3047.1662,N,09550.2669,W,5.65,37.24,160907,,,D*47
$GPGGA,004018.000,3047.1674,N,09550.2660,W,2,7,1.22,60.9,M,-23.6,M,0000,0000*5C
$GPGSA,A,3,04,17,02,28,09,20,12,,,,,,2.23,1.22,1.86*0D
$GPGSV,2,1,08,04,86,207,50,51,52,201,39,02,46,223,40,17,45,045,51*77
$GPGSV,2,2,08,28,37,123,51,09,32,290,46,20,14,051,44,12,12,316,44*7D
$GPRMC,004018.000,A,3047.1674,N,09550.2660,W,5.39,31.82,160907,,,D*45
$GPGGA,004019.000,3047.1686,N,09550.2651,W,2,7,1.22,60.8,M,-23.6,M,0000,0000*53
$GPGSA,A,3,04,17,02,28,09,20,12,,,,,,2.22,1.22,1.86*0C
$GPGSV,2,1,08,04,86,207,50,51,52,201,39,02,46,223,40,17,45,045,51*77
$GPGSV,2,2,08,28,37,123,50,09,32,290,47,20,14,051,44,12,12,316,44*7D
$GPRMC,004019.000,A,3047.1686,N,09550.2651,W,5.38,32.24,160907,,,D*45
$GPGGA,004020.000,3047.1696,N,09550.2641,W,2,7,1.22,60.4,M,-23.6,M,0000,0000*55
$GPGSA,A,3,04,17,02,28,09,20,12,,,,,,2.22,1.22,1.86*0C
$GPGSV,2,1,08,04,86,207,50,51,52,201,40,02,46,223,40,17,45,045,51*79
$GPGSV,2,2,08,28,37,123,50,09,32,290,47,20,14,051,45,12,12,316,44*7C
$GPRMC,004020.000,A,3047.1696,N,09550.2641,W,5.56,35.24,160907,,,D*40
$GPGGA,004021.000,3047.1711,N,09550.2631,W,2,7,1.22,60.4,M,-23.6,M,0000,0000*5D
$GPGSA,A,3,04,17,02,28,09,20,12,,,,,,2.23,1.22,1.86*0D
$GPGSV,2,1,08,04,86,207,50,51,52,201,40,02,46,223,40,17,45,045,51*79
$GPGSV,2,2,08,28,37,123,50,09,32,290,47,20,14,051,46,12,12,316,43*78
$GPRMC,004021.000,A,3047.1711,N,09550.2631,W,5.49,37.39,160907,,,D*48
$GPGGA,004022.000,3047.1721,N,09550.2620,W,2,7,1.22,60.0,M,-23.6,M,0000,0000*59
$GPGSA,A,3,04,17,02,28,09,20,12,,,,,,2.23,1.22,1.86*0D
$GPGSV,2,1,08,04,86,207,50,51,52,201,40,02,46,223,39,17,45,045,51*77
$GPGSV,2,2,08,28,37,123,50,09,32,290,47,20,14,051,46,12,12,316,42*79
$GPRMC,004022.000,A,3047.1721,N,09550.2620,W,5.70,40.16,160907,,,D*4F
$GPGGA,004023.000,3047.1731,N,09550.2609,W,2,7,1.22,59.9,M,-23.6,M,0000,0000*51
$GPGSA,A,3,04,17,02,28,09,20,12,,,,,,2.23,1.22,1.86*0D
$GPGSV,2,1,08,04,86,207,50,51,52,201,40,02,46,223,38,17,45,045,51*76
$GPGSV,2,2,08,28,37,123,50,09,32,290,47,20,14,051,46,12,12,316,40*7B
$GPRMC,004023.000,A,3047.1731,N,09550.2609,W,5.92,41.60,160907,,,D*48
$GPGGA,004024.000,3047.1745,N,09550.2597,W,2,7,1.22,59.8,M,-23.6,M,0000,0000*50
$GPGSA,A,3,04,17,02,28,09,20,12,,,,,,2.22,1.22,1.86*0C
$GPGSV,2,1,08,04,86,207,50,51,52,201,40,02,46,223,37,17,45,045,51*79
$GPGSV,2,2,08,28,37,123,50,09,32,290,47,20,14,051,46,12,12,316,39*75
$GPRMC,004024.000,A,3047.1745,N,09550.2597,W,6.08,41.01,160907,,,D*4F
$GPGGA,004025.000,3047.1753,N,09550.2586,W,2,7,1.22,60.0,M,-23.6,M,0000,0000*54
$GPGSA,A,3,04,17,02,28,09,20,12,,,,,,2.23,1.22,1.86*0D
$GPGSV,2,1,08,04,86,207,50,51,52,201,40,02,46,223,37,17,45,045,51*79
$GPGSV,2,2,08,28,37,124,50,09,32,290,46,20,14,051,46,12,12,316,39*73
$GPRMC,004025.000,A,3047.1753,N,09550.2586,W,6.08,41.45,160907,,,D*49
$GPGGA,004026.000,3047.1767,N,09550.2575,W,2,7,1.22,60.7,M,-23.6,M,0000,0000*5B
$GPGSA,A,3,04,17,02,28,09,20,12,,,,,,2.22,1.22,1.86*0C
$GPGSV,2,1,08,04,86,207,50,51,52,201,40,02,46,223,37,17,45,045,51*79
$GPGSV,2,2,08,28,37,124,50,09,32,290,46,20,14,051,46,12,12,316,39*73
$GPRMC,004026.000,A,3047.1767,N,09550.2575,W,6.10,39.20,160907,,,D*44
$GPGGA,004027.000,3047.1779,N,09550.2563,W,2,7,1.22,61.2,M,-23.6,M,0000,0000*56
$GPGSA,A,3,04,17,02,28,09,20,12,,,,,,2.23,1.22,1.86*0D
$GPGSV,2,1,08,04,86,207,50,51,52,201,41,02,46,223,37,17,45,045,51*78
$GPGSV,2,2,08,28,37,124,50,09,32,290,46,20,14,051,46,12,12,316,38*72
$GPRMC,004027.000,A,3047.1779,N,09550.2563,W,6.19,40.10,160907,,,D*49
$GPGGA,004028.000,3047.1790,N,09550.2551,W,2,7,1.22,61.5,M,-23.6,M,0000,0000*58
$GPGSA,A,3,04,17,02,28,09,20,12,,,,,,2.23,1.22,1.87*0C
$GPGSV,2,1,08,04,86,207,50,51,52,201,42,02,46,223,37,17,45,045,51*7B
$GPGSV,2,2,08,28,37,124,49,09,32,290,46,20,14,051,46,12,12,316,36*74
$GPRMC,004028.000,A,3047.1790,N,09550.2551,W,5.94,41.30,160907,,,D*45
$GPGGA,004029.000,3047.1804,N,09550.2539,W,2,7,1.22,62.0,M,-23.6,M,0000,0000*53
$GPGSA,A,3,04,17,02,28,09,20,12,,,,,,2.23,1.22,1.86*0D
$GPGSV,2,1,08,04,86,207,50,51,52,201,42,02,46,223,37,17,45,045,51*7B
$GPGSV,2,2,08,28,37,124,49,09,32,290,46,20,14,051,46,12,12,316,36*74
$GPRMC,004029.000,A,3047.1804,N,09550.2539,W,5.83,41.22,160907,,,D*4D
$GPGGA,004030.000,3047.1816,N,09550.2526,W,2,7,1.22,61.8,M,-23.6,M,0000,0000*5D
$GPGSA,A,3,04,17,02,28,09,20,12,,,,,,2.22,1.22,1.86*0C
$GPGSV,2,1,08,04,86,207,50,51,52,201,42,02,46,223,37,17,45,045,51*7B
$GPGSV,2,2,08,28,37,124,49,09,32,290,46,20,14,051,46,12,12,316,35*77
$GPRMC,004030.000,A,3047.1816,N,09550.2526,W,5.95,38.83,160907,,,D*4A
$GPGGA,004031.000,3047.1828,N,09550.2514,W,2,7,1.22,61.2,M,-23.6,M,0000,0000*5A
$GPGSA,A,3,04,17,02,28,09,20,12,,,,,,2.23,1.22,1.86*0D
$GPGSV,2,1,08,04,86,207,50,51,52,201,42,02,46,223,37,17,45,045,51*7B
$GPGSV,2,2,08,28,37,124,49,09,32,290,46,20,14,051,46,12,12,316,35*77
$GPRMC,004031.000,A,3047.1828,N,09550.2514,W,5.99,38.98,160907,,,D*41
$GPGGA,004032.000,3047.1844,N,09550.2500,W,2,7,1.22,61.1,M,-23.6,M,0000,0000*55
$GPGSA,A,3,04,17,02,28,09,20,12,,,,,,2.22,1.22,1.86*0C
$GPGSV,2,1,08,04,86,207,50,51,52,201,42,02,46,223,37,17,45,045,51*7B
$GPGSV,2,2,08,28,37,124,49,09,32,290,46,20,14,051,46,12,12,316,35*77
$GPRMC,004032.000,A,3047.1844,N,09550.2500,W,5.87,37.72,160907,,,D*49
$GPGGA,004033.000,3047.1853,N,09550.2487,W,2,7,1.22,60.3,M,-23.6,M,0000,0000*5F
$GPGSA,A,3,04,17,02,28,09,20,12,,,,,,2.22,1.22,1.86*0C
$GPGSV,2,1,08,04,86,208,50,51,52,201,42,02,46,223,37,17,45,045,51*74
$GPGSV,2,2,08,28,37,124,49,09,32,290,46,20,14,051,46,12,12,316,35*77
$GPRMC,004033.000,A,3047.1853,N,09550.2487,W,5.81,38.66,160907,,,D*4C
$GPGGA,004034.000,3047.1870,N,09550.2473,W,2,7,1.22,60.5,M,-23.6,M,0000,0000*54
$GPGSA,A,3,04,17,02,28,09,20,12,,,,,,2.22,1.22,1.86*0C
$GPGSV,2,1,08,04,86,208,50,51,52,201,42,02,46,223,37,17,45,045,51*74
$GPGSV,2,2,08,28,37,124,49,09,32,290,46,20,14,051,46,12,12,316,35*77
$GPRMC,004034.000,A,3047.1870,N,09550.2473,W,5.52,37.93,160907,,,D*4A
$GPGGA,004035.000,3047.1881,N,09550.2461,W,2,7,1.22,59.9,M,-23.6,M,0000,0000*5E
$GPGSA,A,3,04,17,02,28,09,20,12,,,,,,2.23,1.22,1.86*0D
$GPGSV,2,1,08,04,86,208,50,51,52,201,43,02,46,223,37,17,45,045,51*75
$GPGSV,2,2,08,28,37,124,49,09,32,290,45,20,14,051,46,12,12,316,35*74
$GPRMC,004035.000,A,3047.1881,N,09550.2461,W,5.09,39.91,160907,,,D*44
$GPGGA,004036.000,3047.1889,N,09550.2451,W,2,7,1.22,59.7,M,-23.6,M,0000,0000*58
$GPGSA,A,3,04,17,02,28,09,20,12,,,,,,2.22,1.22,1.86*0C
$GPGSV,2,1,08,04,86,208,50,51,52,201,42,02,46,223,36,17,45,045,51*75
$GPGSV,2,2,08,28,37,124,49,09,32,290,45,20,14,051,46,12,12,316,35*74
$GPRMC,004036.000,A,3047.1889,N,09550.2451,W,5.01,38.49,160907,,,D*40
$GPGGA,004037.000,3047.1905,N,09550.2441,W,2,7,1.22,60.2,M,-23.6,M,0000,0000*52
$GPGSA,A,3,04,17,02,28,09,20,12,,,,,,2.23,1.22,1.86*0D
$GPGSV,2,1,08,04,86,208,50,51,52,201,42,02,46,223,36,17,45,045,51*75
$GPGSV,2,2,08,28,37,124,49,09,32,290,45,20,14,051,45,12,12,316,37*75
$GPRMC,004037.000,A,3047.1905,N,09550.2441,W,5.20,35.11,160907,,,D*46
$GPGGA,004038.000,3047.1915,N,09550.2431,W,2,7,1.22,60.2,M,-23.6,M,0000,0000*5B
$GPGSA,A,3,04,17,02,28,09,20,12,,,,,,2.23,1.22,1.86*0D
$GPGSV,2,1,08,04,86,208,50,51,52,201,42,02,46,223,36,17,45,045,51*75
$GPGSV,2,2,08,28,37,124,49,09,32,290,46,20,14,051,45,12,12,316,39*78
$GPRMC,004038.000,A,3047.1915,N,09550.2431,W,5.35,32.15,160907,,,D*48
$GPGGA,004039.000,3047.1930,N,09550.2421,W,2,7,1.22,60.9,M,-23.6,M,0000,0000*57
$GPGSA,A,3,04,17,02,28,09,20,12,,,,,,2.23,1.22,1.86*0D
$GPGSV,2,1,08,04,86,208,50,51,52,201,42,02,46,223,37,17,45,045,51*74
$GPGSV,2,2,08,28,37,124,49,09,32,290,46,20,14,051,45,12,12,316,40*76
$GPRMC,004039.000,A,3047.1930,N,09550.2421,W,5.47,34.51,160907,,,D*4C
$GPGGA,004040.000,3047.1943,N,09550.2409,W,2,7,1.22,60.9,M,-23.6,M,0000,0000*57
$GPGSA,A,3,04,17,02,28,09,20,12,,,,,,2.22,1.22,1.86*0C
$GPGSV,2,1,08,04,86,208,50,51,52,201,41,02,46,223,38,17,45,045,51*78
$GPGSV,2,2,08,28,37,124,50,09,32,290,46,20,14,051,45,12,12,316,41*7F
$GPRMC,004040.000,A,3047.1943,N,09550.2409,W,5.71,35.73,160907,,,D*48
$GPGGA,004041.000,3047.1955,N,09550.2399,W,2,7,1.22,61.0,M,-23.6,M,0000,0000*57
$GPGSA,A,3,04,17,02,28,09,20,12,,,,,,2.23,1.22,1.86*0D
$GPGSV,2,1,08,04,86,208,50,51,52,201,41,02,46,223,39,17,45,045,51*79
$GPGSV,2,2,08,28,37,124,50,09,32,290,46,20,14,051,44,12,12,316,42*7D
$GPRMC,004041.000,A,3047.1955,N,09550.2399,W,6.00,33.62,160907,,,D*43
$GPGGA,004042.000,3047.1968,N,09550.2389,W,2,7,1.22,61.2,M,-23.6,M,0000,0000*59
$GPGSA,A,3,04,17,02,28,09,20,12,,,,,,2.23,1.22,1.86*0D
$GPGSV,2,1,08,04,86,208,50,51,52,201,41,02,46,223,39,17,45,045,51*79
$GPGSV,2,2,08,28,37,124,49,09,32,290,46,20,14,051,44,12,12,316,42*75
$GPRMC,004042.000,A,3047.1968,N,09550.2389,W,5.77,35.65,160907,,,D*4D
$GPGGA,004043.000,3047.1979,N,09550.2380,W,2,7,1.22,61.2,M,-23.6,M,0000,0000*51
$GPGSA,A,3,04,17,02,28,09,20,12,,,,,,2.22,1.22,1.86*0C
$GPGSV,2,1,08,04,86,208,50,51,52,201,41,02,46,223,39,17,45,045,51*79
$GPGSV,2,2,08,28,37,124,49,09,32,290,47,20,14,051,44,12,12,316,42*74
$GPRMC,004043.000,A,3047.1979,N,09550.2380,W,5.15,33.16,160907,,,D*43
$GPGGA,004044.000,3047.1992,N,09550.2373,W,2,7,1.22,61.4,M,-23.6,M,0000,0000*59
$GPGSA,A,3,04,17,02,28,09,20,12,,,,,,2.22,1.22,1.86*0C
$GPGSV,2,1,08,04,86,208,50,51,52,201,41,02,46,223,39,17,45,045,51*79
$GPGSV,2,2,08,28,37,124,49,09,32,290,47,20,14,051,44,12,12,316,43*75
$GPRMC,004044.000,A,3047.1992,N,09550.2373,W,5.28,31.23,160907,,,D*47
$GPGGA,004045.000,3047.2005,N,09550.2363,W,2,7,1.22,61.4,M,-23.6,M,0000,0000*5D
$GPGSA,A,3,04,17,02,28,09,20,12,,,,,,2.23,1.22,1.86*0D
$GPGSV,2,1,08,04,86,208,50,51,52,201,42,02,46,223,39,17,45,045,51*7A
$GPGSV,2,2,08,28,37,124,49,09,32,290,47,20,14,051,44,12,12,316,43*75
$GPRMC,004045.000,A,3047.2005,N,09550.2363,W,5.30,31.77,160907,,,D*4B
$GPGGA,004046.000,3047.2015,N,09550.2358,W,2,7,1.22,61.0,M,-23.6,M,0000,0000*53
$GPGSA,A,3,04,17,02,28,09,20,12,,,,,,2.23,1.22,1.86*0D
$GPGSV,2,1,08,04,86,208,50,51,52,201,40,02,46,223,39,17,45,046,51*7B
$GPGSV,2,2,08,28,37,124,49,09,32,290,47,20,14,051,44,12,12,316,43*75
$GPRMC,004046.000,A,3047.2015,N,09550.2358,W,5.33,29.28,160907,,,D*41
$GPGGA,004047.000,3047.2026,N,09550.2354,W,2,7,1.22,60.6,M,-23.6,M,0000,0000*59
$GPGSA,A,3,04,17,02,28,09,20,12,,,,,,2.23,1.22,1.86*0D
$GPGSV,2,1,08,04,86,208,50,51,52,201,33,02,46,223,40,17,45,046,51*71
$GPGSV,2,2,08,28,37,124,50,09,32,290,47,20,14,051,44,12,12,316,44*7A
$GPRMC,004047.000,A,3047.2026,N,09550.2354,W,5.34,25.84,160907,,,D*41
$GPGGA,004048.000,3047.2033,N,09550.2352,W,2,7,1.22,60.2,M,-23.6,M,0000,0000*50
$GPGSA,A,3,04,17,02,28,09,20,12,,,,,,2.23,1.22,1.86*0D
$GPGSV,2,1,08,04,86,208,50,51,52,201,40,02,46,223,42,17,45,046,51*77
$GPGSV,2,2,08,28,37,124,49,09,32,290,48,20,14,051,44,12,12,316,45*7C
$GPRMC,004048.000,A,3047.2033,N,09550.2352,W,3.70,22.58,160907,,,D*4C
$GPGGA,004049.000,3047.2041,N,09550.2351,W,2,7,1.07,60.3,M,-23.6,M,0000,0000*51
$GPGSA,A,3,04,17,02,28,09,20,12,,,,,,1.39,1.07,0.88*0D
$GPGSV,2,1,08,04,86,208,50,51,52,201,39,02,46,223,43,17,45,046,51*78
$GPGSV,2,2,08,28,37,124,48,09,32,290,48,20,13,050,45,12,12,316,45*7A
$GPRMC,004049.000,A,3047.2041,N,09550.2351,W,3.53,18.97,160907,,,D*40
$GPGGA,004050.000,3047.2047,N,09550.2350,W,2,7,1.07,60.0,M,-23.6,M,0000,0000*5D
$GPGSA,A,3,04,17,02,28,09,20,12,,,,,,1.39,1.07,0.88*0D
$GPGSV,2,1,08,04,86,208,51,51,52,201,40,02,46,223,44,17,45,046,51*70
$GPGSV,2,2,08,28,37,124,48,09,32,290,48,20,13,050,45,12,12,316,46*79
$GPRMC,004050.000,A,3047.2047,N,09550.2350,W,2.99,15.88,160907,,,D*4B
$GPGGA,004051.000,3047.2054,N,09550.2349,W,2,7,1.08,59.7,M,-23.6,M,0000,0000*54
$GPGSA,A,3,04,17,02,28,09,20,12,,,,,,1.39,1.08,0.88*02
$GPGSV,2,1,08,04,86,208,51,51,52,201,38,02,46,223,44,17,45,046,51*7F
$GPGSV,2,2,08,28,37,124,47,09,32,290,49,20,13,050,45,12,12,316,46*77
$GPRMC,004051.000,A,3047.2054,N,09550.2349,W,3.48,13.47,160907,,,D*48
$GPGGA,004052.000,3047.2064,N,09550.2348,W,2,7,1.22,59.2,M,-23.6,M,0000,0000*58
$GPGSA,A,3,04,17,02,28,09,20,12,,,,,,2.22,1.22,1.86*0C
$GPGSV,2,1,08,04,86,208,51,51,52,201,38,02,46,223,45,17,45,046,50*7F
$GPGSV,2,2,08,28,37,124,46,09,32,290,49,20,13,050,46,12,12,316,46*75
$GPRMC,004052.000,A,3047.2064,N,09550.2348,W,4.11,9.42,160907,,,D*7C
$GPGGA,004053.000,3047.2076,N,09550.2347,W,2,7,1.22,59.0,M,-23.6,M,0000,0000*57
$GPGSA,A,3,04,17,02,28,09,20,12,,,,,,2.22,1.22,1.86*0C
$GPGSV,2,1,08,04,86,208,51,51,52,201,38,02,46,223,45,17,45,046,49*77
$GPGSV,2,2,08,28,37,124,46,09,32,290,49,20,13,050,46,12,12,316,46*75
$GPRMC,004053.000,A,3047.2076,N,09550.2347,W,4.09,10.16,160907,,,D*41
$GPGGA,004054.000,3047.2087,N,09550.2346,W,2,7,1.22,58.4,M,-23.6,M,0000,0000*5A
$GPGSA,A,3,04,17,02,28,09,20,12,,,,,,2.22,1.22,1.86*0C
$GPGSV,2,1,08,04,86,208,51,51,52,201,38,02,46,223,46,17,45,046,48*75
$GPGSV,2,2,08,28,37,124,45,09,32,290,48,20,13,050,46,12,12,316,45*74
$GPRMC,004054.000,A,3047.2087,N,09550.2346,W,4.50,13.28,160907,,,D*4B
$GPGGA,004055.000,3047.2099,N,09550.2342,W,2,7,1.22,58.3,M,-23.6,M,0000,0000*57
$GPGSA,A,3,04,17,02,28,09,20,12,,,,,,2.22,1.22,1.86*0C
$GPGSV,2,1,08,04,86,208,51,51,52,201,38,02,46,223,46,17,45,046,48*75
$GPGSV,2,2,08,28,37,124,44,09,32,290,48,20,13,050,46,12,12,316,45*75
$GPRMC,004055.000,A,3047.2099,N,09550.2342,W,4.24,13.50,160907,,,D*4D
$GPGGA,004056.000,3047.2110,N,09550.2341,W,2,7,1.22,58.2,M,-23.6,M,0000,0000*56
$GPGSA,A,3,04,17,02,28,09,20,12,,,,,,2.23,1.22,1.86*0D
$GPGSV,2,1,08,04,86,208,51,51,52,201,39,02,46,223,46,17,45,046,48*74
$GPGSV,2,2,08,28,37,124,44,09,32,290,48,20,13,050,46,12,12,316,45*75
$GPRMC,004056.000,A,3047.2110,N,09550.2341,W,4.82,13.97,160907,,,D*4A
$GPGGA,004057.000,3047.2125,N,09550.2338,W,2,7,1.22,58.1,M,-23.6,M,0000,0000*5C
$GPGSA,A,3,04,17,02,28,09,20,12,,,,,,2.22,1.22,1.86*0C
$GPGSV,2,1,08,04,86,208,51,51,52,201,38,02,46,223,47,17,45,046,48*74
$GPGSV,2,2,08,28,37,124,43,09,32,290,49,20,13,050,46,12,12,316,45*73
$GPRMC,004057.000,A,3047.2125,N,09550.2338,W,5.29,7.27,160907,,,D*7D
$GPGGA,004058.000,3047.2141,N,09550.2337,W,2,7,1.22,58.3,M,-23.6,M,0000,0000*5C
$GPGSA,A,3,04,17,02,28,09,20,12,,,,,,2.22,1.22,1.86*0C
$GPGSV,2,1,08,04,86,208,51,51,52,201,38,02,46,223,47,17,45,046,48*74
$GPGSV,2,2,08,28,37,124,44,09,32,290,48,20,13,050,46,12,12,316,45*75
$GPRMC,004058.000,A,3047.2141,N,09550.2337,W,5.39,1.06,160907,,,D*7B
$GPGGA,004059.000,3047.2155,N,09550.2335,W,2,7,1.22,58.6,M,-23.6,M,0000,0000*5F
$GPGSA,A,3,04,17,02,28,09,20,12,,,,,,2.23,1.22,1.86*0D
$GPGSV,2,1,08,04,86,208,51,51,52,201,37,02,46,223,48,17,45,046,48*74
$GPGSV,2,2,08,28,37,124,43,09,32,290,46,20,13,050,45,12,12,316,46*7C
$GPRMC,004059.000,A,3047.2155,N,09550.2335,W,4.96,358.36,160907,,,D*75
$GPGGA,004100.000,3047.2167,N,09550.2336,W,2,7,1.22,58.4,M,-23.6,M,0000,0000*52
$GPGSA,A,3,04,17,02,28,09,20,12,,,,,,2.22,1.22,1.86*0C
$GPGSV,2,1,08,04,86,208,51,51,52,201,37,02,46,223,49,17,45,046,48*75
$GPGSV,2,2,08,28,37,124,43,09,32,290,45,20,13,050,44,12,12,316,47*7F
$GPRMC,004100.000,A,3047.2167,N,09550.2336,W,4.75,357.28,160907,,,D*77
$GPGGA,004101.000,3047.2183,N,09550.2335,W,2,7,1.22,58.5,M,-23.6,M,0000,0000*5B
$GPGSA,A,3,04,17,02,28,09,20,12,,,,,,2.22,1.22,1.86*0C
$GPGSV,2,1,08,04,86,208,51,51,52,201,37,02,46,223,49,17,45,046,48*75
$GPGSV,2,2,08,28,37,124,43,09,32,290,44,20,13,050,43,12,12,316,47*79
$GPRMC,004101.000,A,3047.2183,N,09550.2335,W,4.99,1.36,160907,,,D*72
$GPGGA,004102.000,3047.2195,N,09550.2334,W,2,7,1.22,58.9,M,-23.6,M,0000,0000*52
$GPGSA,A,3,04,17,02,28,09,20,12,,,,,,2.23,1.22,1.86*0D
$GPGSV,2,1,08,04,86,208,51,51,52,201,38,02,46,223,49,17,45,046,48*7A
$GPGSV,2,2,08,28,37,124,43,09,32,290,43,20,13,050,42,12,12,316,48*70
$GPRMC,004102.000,A,3047.2195,N,09550.2334,W,4.75,357.57,160907,,,D*72
$GPGGA,004103.000,3047.2212,N,09550.2335,W,2,7,1.22,59.4,M,-23.6,M,0000,0000*52
$GPGSA,A,3,04,17,02,28,09,20,12,,,,,,2.23,1.22,1.86*0D
$GPGSV,2,1,08,04,86,208,51,51,52,201,39,02,46,223,49,17,45,046,48*7B
$GPGSV,2,2,08,28,37,124,43,09,32,290,43,20,13,050,42,12,12,316,48*70
$GPRMC,004103.000,A,3047.2212,N,09550.2335,W,5.19,359.46,160907,,,D*7B
$GPGGA,004104.000,3047.2223,N,09550.2333,W,2,7,1.22,59.9,M,-23.6,M,0000,0000*5C
$GPGSA,A,3,04,17,02,28,09,20,12,,,,,,2.22,1.22,1.86*0C
$GPGSV,2,1,08,04,86,208,51,51,52,201,40,02,46,223,49,17,45,046,48*75
$GPGSV,2,2,08,28,37,124,43,09,32,290,43,20,13,050,42,12,12,316,48*70
$GPRMC,004104.000,A,3047.2223,N,09550.2333,W,5.36,2.70,160907,,,D*7D
$GPGGA,004105.000,3047.2240,N,09550.2331,W,2,7,1.22,60.4,M,-23.6,M,0000,0000*5D
$GPGSA,A,3,04,17,02,28,09,20,12,,,,,,2.22,1.22,1.86*0C
$GPGSV,2,1,08,04,87,208,51,51,52,201,41,02,46,223,49,17,45,046,49*74
$GPGSV,2,2,08,28,37,124,43,09,32,290,43,20,13,050,42,12,12,316,48*70
$GPRMC,004105.000,A,3047.2240,N,09550.2331,W,5.71,0.19,160907,,,D*75
$GPGGA,004106.000,3047.2255,N,09550.2330,W,2,7,1.22,60.7,M,-23.6,M,0000,0000*58
$GPGSA,A,3,04,17,02,28,09,20,12,,,,,,2.23,1.22,1.86*0D
$GPGSV,2,1,08,04,87,208,51,51,52,201,42,02,46,223,49,17,45,046,49*77
$GPGSV,2,2,08,28,37,124,43,09,32,290,43,20,13,050,42,12,12,316,48*70
$GPRMC,004106.000,A,3047.2255,N,09550.2330,W,5.94,3.48,160907,,,D*7F
$GPGGA,004107.000,3047.2272,N,09550.2330,W,2,7,1.22,60.7,M,-23.6,M,0000,0000*5C
$GPGSA,A,3,04,17,02,28,09,20,12,,,,,,2.23,1.22,1.86*0D
$GPGSV,2,1,08,04,87,208,51,51,52,201,42,02,46,223,49,17,45,046,49*77
$GPGSV,2,2,08,28,37,124,43,09,32,290,43,20,13,050,42,12,12,316,49*71
$GPRMC,004107.000,A,3047.2272,N,09550.2330,W,5.94,359.67,160907,,,D*7A
$GPGGA,004108.000,3047.2287,N,09550.2330,W,2,7,1.22,60.8,M,-23.6,M,0000,0000*56
$GPGSA,A,3,04,17,02,28,09,20,12,,,,,,2.22,1.22,1.86*0C
$GPGSV,2,1,08,04,87,208,51,51,52,201,41,02,46,223,49,17,45,046,48*75
$GPGSV,2,2,08,28,37,124,43,09,32,290,42,20,13,050,41,12,12,316,49*73
$GPRMC,004108.000,A,3047.2287,N,09550.2330,W,5.59,1.09,160907,,,D*78
$GPGGA,004109.000,3047.2304,N,09550.2329,W,2,7,1.22,60.8,M,-23.6,M,0000,0000*55
$GPGSA,A,3,04,17,02,28,09,20,12,,,,,,2.22,1.22,1.86*0C
$GPGSV,2,1,08,04,87,208,51,51,52,201,40,02,46,223,49,17,45,046,48*74
$GPGSV,2,2,08,28,37,124,43,09,32,290,42,20,13,050,41,12,12,316,49*73
$GPRMC,004109.000,A,3047.2304,N,09550.2329,W,5.91,7.19,160907,,,D*78
$GPGGA,004110.000,3047.2319,N,09550.2328,W,2,7,1.22,60.9,M,-23.6,M,0000,0000*51
$GPGSA,A,3,04,17,02,28,09,20,12,,,,,,2.22,1.22,1.86*0C
$GPGSV,2,1,08,04,87,208,51,51,52,201,40,02,46,223,49,17,45,046,48*74
$GPGSV,2,2,08,28,37,124,43,09,32,290,42,20,13,050,41,12,12,316,49*73
$GPRMC,004110.000,A,3047.2319,N,09550.2328,W,5.89,3.55,160907,,,D*78
$GPGGA,004111.000,3047.2335,N,09550.2328,W,2,7,1.22,61.2,M,-23.6,M,0000,0000*54
$GPGSA,A,3,04,17,02,28,09,20,12,,,,,,2.22,1.22,1.86*0C
$GPGSV,2,1,08,04,87,208,51,51,52,201,40,02,46,223,49,17,45,046,48*74
$GPGSV,2,2,08,28,37,124,43,09,32,290,42,20,13,050,41,12,12,316,49*73
$GPRMC,004111.000,A,3047.2335,N,09550.2328,W,5.72,3.29,160907,,,D*78
$GPGGA,004112.000,3047.2349,N,09550.2330,W,2,7,1.22,60.9,M,-23.6,M,0000,0000*5F
$GPGSA,A,3,04,17,02,28,09,20,12,,,,,,2.22,1.22,1.86*0C
$GPGSV,2,1,08,04,87,208,51,51,52,201,39,02,46,223,49,17,45,046,48*7A
$GPGSV,2,2,08,28,37,124,43,09,32,290,42,20,13,050,42,12,12,316,49*70
$GPRMC,004112.000,A,3047.2349,N,09550.2330,W,5.95,0.77,160907,,,D*78
$GPGGA,004113.000,3047.2366,N,09550.2330,W,2,7,1.22,60.7,M,-23.6,M,0000,0000*5D
$GPGSA,A,3,04,17,02,28,09,20,12,,,,,,2.22,1.22,1.86*0C
$GPGSV,2,1,08,04,87,208,51,51,52,201,39,02,46,223,49,17,45,046,48*7A
$GPGSV,2,2,08,28,37,124,43,09,32,290,43,20,13,050,42,12,12,316,49*71
$GPRMC,004113.000,A,3047.2366,N,09550.2330,W,6.17,4.55,160907,,,D*79
$GPGGA,004114.000,3047.2385,N,09550.2330,W,2,7,1.22,61.3,M,-23.6,M,0000,0000*52
$GPGSA,A,3,04,17,02,28,09,20,12,,,,,,2.22,1.22,1.86*0C
$GPGSV,2,1,08,04,87,208,51,51,52,201,40,02,46,223,49,17,45,046,48*74
$GPGSV,2,2,08,28,37,124,43,09,32,290,43,20,13,050,42,12,12,316,48*70
$GPRMC,004114.000,A,3047.2385,N,09550.2330,W,6.59,4.39,160907,,,D*73
$GPGGA,004115.000,3047.2405,N,09550.2327,W,2,7,1.22,61.0,M,-23.6,M,0000,0000*59
$GPGSA,A,3,04,17,02,28,09,20,12,,,,,,2.23,1.22,1.86*0D
$GPGSV,2,1,08,04,87,208,51,51,52,201,41,02,46,223,49,17,45,046,48*75
$GPGSV,2,2,08,28,37,124,43,09,32,290,44,20,13,050,43,12,12,316,47*79
$GPRMC,004115.000,A,3047.2405,N,09550.2327,W,6.67,5.54,160907,,,D*7C
$GPGGA,004116.000,3047.2423,N,09550.2324,W,2,7,1.22,60.5,M,-23.6,M,0000,0000*59
$GPGSA,A,3,04,17,02,28,09,20,12,,,,,,2.22,1.22,1.86*0C
$GPGSV,2,1,08,04,87,208,51,51,52,201,41,02,46,223,49,17,45,046,48*75
$GPGSV,2,2,08,28,37,124,43,09,32,290,45,20,13,050,44,12,12,316,46*7E
$GPRMC,004116.000,A,3047.2423,N,09550.2324,W,7.02,11.91,160907,,,D*46
$GPGGA,004117.000,3047.2444,N,09550.2322,W,2,7,1.22,60.0,M,-23.6,M,0000,0000*5A
$GPGSA,A,3,04,17,02,28,09,20,12,,,,,,2.22,1.22,1.86*0C
$GPGSV,2,1,08,04,87,208,51,51,52,201,41,02,46,223,49,17,45,046,48*75
$GPGSV,2,2,08,28,37,124,43,09,32,290,46,20,13,050,45,12,12,316,46*7C
$GPRMC,004117.000,A,3047.2444,N,09550.2322,W,6.59,7.12,160907,,,D*73
$GPGGA,004118.000,3047.2460,N,09550.2319,W,2,7,1.22,59.1,M,-23.6,M,0000,0000*50
$GPGSA,A,3,04,17,02,28,09,20,12,,,,,,2.22,1.22,1.86*0C
$GPGSV,2,1,08,04,87,208,51,51,52,201,40,02,46,223,48,17,45,046,47*7A
$GPGSV,2,2,08,28,37,124,43,09,32,290,47,20,13,050,46,12,12,316,45*7D
$GPRMC,004118.000,A,3047.2460,N,09550.2319,W,6.48,8.67,160907,,,D*7F
$GPGGA,004119.000,3047.2480,N,09550.2314,W,2,7,1.22,59.0,M,-23.6,M,0000,0000*53
$GPGSA,A,3,04,17,02,28,09,20,12,,,,,,2.23,1.22,1.86*0D
$GPGSV,2,1,08,04,87,208,51,51,52,201,40,02,46,223,48,17,45,046,47*7A
$GPGSV,2,2,08,28,37,124,43,09,32,290,48,20,13,050,46,12,12,316,45*72
$GPRMC,004119.000,A,3047.2480,N,09550.2314,W,6.79,13.99,160907,,,D*44
$GPGGA,004120.000,3047.2500,N,09550.2308,W,2,7,1.22,58.3,M,-23.6,M,0000,0000*5F
$GPGSA,A,3,04,17,02,28,09,20,12,,,,,,2.22,1.22,1.86*0C
$GPGSV,2,1,08,04,87,208,51,51,52,201,40,02,46,223,47,17,45,046,47*75
$GPGSV,2,2,08,28,37,124,43,09,32,290,49,20,13,050,46,12,12,316,45*73
$GPRMC,004120.000,A,3047.2500,N,09550.2308,W,7.23,12.21,160907,,,D*46
$GPGGA,004121.000,3047.2519,N,09550.2303,W,2,7,1.22,57.8,M,-23.6,M,0000,0000*59
$GPGSA,A,3,04,17,02,28,09,20,12,,,,,,2.22,1.22,1.86*0C
$GPGSV,2,1,08,04,87,208,51,51,52,201,40,02,46,223,47,17,45,046,47*75
$GPGSV,2,2,08,28,37,124,44,09,32,290,49,20,13,050,46,12,12,316,45*74
$GPRMC,004121.000,A,3047.2519,N,09550.2303,W,7.09,14.20,160907,,,D*4B
$GPGGA,004122.000,3047.2539,N,09550.2296,W,2,7,1.22,58.0,M,-23.6,M,0000,0000*52
$GPGSA,A,3,04,17,02,28,09,20,12,,,,,,2.22,1.22,1.86*0C
$GPGSV,2,1,08,04,87,208,51,51,52,201,41,02,46,223,47,17,45,046,47*74
$GPGSV,2,2,08,28,37,124,44,09,32,290,50,20,13,050,46,12,12,316,45*7C
$GPRMC,004122.000,A,3047.2539,N,09550.2296,W,6.99,19.87,160907,,,D*4F
$GPGGA,004123.000,3047.2556,N,09550.2288,W,2,7,1.22,58.1,M,-23.6,M,0000,0000*54
$GPGSA,A,3,04,17,02,28,09,20,12,,,,,,2.22,1.22,1.86*0C
$GPGSV,2,1,08,04,87,208,51,51,52,201,41,02,46,223,47,17,45,046,48*7B
$GPGSV,2,2,08,28,37,124,43,09,32,290,50,20,13,050,46,12,12,316,45*7B
$GPRMC,004123.000,A,3047.2556,N,09550.2288,W,6.70,19.30,160907,,,D*43
$GPGGA,004124.000,3047.2573,N,09550.2281,W,2,7,1.22,58.1,M,-23.6,M,0000,0000*5D
$GPGSA,A,3,04,17,02,28,09,20,12,,,,,,2.22,1.22,1.86*0C
$GPGSV,2,1,08,04,87,208,51,51,52,201,41,02,46,223,47,17,45,046,49*7A
$GPGSV,2,2,08,28,37,124,43,09,32,290,50,20,13,050,46,12,12,316,45*7B
$GPRMC,004124.000,A,3047.2573,N,09550.2281,W,6.63,21.29,160907,,,D*4B
$GPGGA,004125.000,3047.2589,N,09550.2272,W,2,7,1.22,58.2,M,-23.6,M,0000,0000*56
$GPGSA,A,3,04,17,02,28,09,20,12,,,,,,2.22,1.22,1.86*0C
$GPGSV,2,1,08,04,87,208,51,51,52,201,41,02,46,223,47,17,45,046,49*7A
$GPGSV,2,2,08,28,37,124,43,09,32,290,50,20,13,050,46,12,12,316,45*7B
$GPRMC,004125.000,A,3047.2589,N,09550.2272,W,6.37,21.85,160907,,,D*44
$GPGGA,004126.000,3047.2604,N,09550.2264,W,2,7,1.22,58.1,M,-23.6,M,0000,0000*57
$GPGSA,A,3,04,17,02,28,09,20,12,,,,,,2.22,1.22,1.86*0C
$GPGSV,2,1,08,04,87,208,51,51,52,201,42,02,46,223,47,17,45,046,49*79
$GPGSV,2,2,08,28,37,124,43,09,32,290,50,20,13,050,46,12,12,316,45*7B
$GPRMC,004126.000,A,3047.2604,N,09550.2264,W,6.35,18.66,160907,,,D*43
$GPGGA,004127.000,3047.2620,N,09550.2256,W,2,7,1.22,58.0,M,-23.6,M,0000,0000*50
$GPGSA,A,3,04,17,02,28,09,20,12,,,,,,2.22,1.22,1.86*0C
$GPGSV,2,1,08,04,87,208,51,51,52,201,41,02,46,223,47,17,45,046,50*72
$GPGSV,2,2,08,28,37,124,43,09,32,290,50,20,13,050,46,12,12,316,45*7B
$GPRMC,004127.000,A,3047.2620,N,09550.2256,W,6.03,18.14,160907,,,D*45
$GPGGA,004128.000,3047.2637,N,09550.2250,W,2,7,1.22,58.3,M,-23.6,M,0000,0000*5C
$GPGSA,A,3,04,17,02,28,09,20,12,,,,,,2.22,1.22,1.86*0C
$GPGSV,2,1,08,04,87,208,51,51,52,201,41,02,46,223,46,17,45,046,50*73
$GPGSV,2,2,08,28,37,124,44,09,32,290,50,20,13,050,46,12,12,316,45*7C
$GPRMC,004128.000,A,3047.2637,N,09550.2250,W,5.93,20.46,160907,,,D*4C
$GPGGA,004129.000,3047.2650,N,09550.2242,W,2,7,1.22,58.2,M,-23.6,M,0000,0000*5E
$GPGSA,A,3,04,17,02,28,09,20,12,,,,,,2.22,1.22,1.86*0C
$GPGSV,2,1,08,04,87,208,51,51,52,201,40,02,46,223,45,17,45,046,50*71
$GPGSV,2,2,08,28,37,124,44,09,32,290,50,20,13,050,46,12,12,316,45*7C
$GPRMC,004129.000,A,3047.2650,N,09550.2242,W,5.52,18.48,160907,,,D*47
$GPGGA,004130.000,3047.2664,N,09550.2236,W,2,7,1.22,58.6,M,-23.6,M,0000,0000*56
$GPGSA,A,3,04,17,02,28,09,20,12,,,,,,2.23,1.22,1.86*0D
$GPGSV,2,1,08,04,87,208,51,51,52,201,39,02,46,223,44,17,45,046,50*7E
$GPGSV,2,2,08,28,37,124,44,09,32,290,50,20,13,050,46,12,12,316,45*7C
$GPRMC,004130.000,A,3047.2664,N,09550.2236,W,5.33,19.51,160907,,,D*45
$GPGGA,004131.000,3047.2683,N,09550.2228,W,2,7,1.22,59.8,M,-23.6,M,0000,0000*5E
$GPGSA,A,3,04,17,02,28,09,20,12,,,,,,2.22,1.22,1.86*0C
$GPGSV,2,1,08,04,87,208,51,51,52,201,30,02,46,223,43,17,45,046,50*70
$GPGSV,2,2,08,28,37,124,45,09,32,290,50,20,13,050,46,12,12,316,45*7D
$GPRMC,004131.000,A,3047.2683,N,09550.2228,W,5.40,25.47,160907,,,D*4E
$GPGGA,004132.000,3047.2696,N,09550.2218,W,2,7,1.22,59.9,M,-23.6,M,0000,0000*5B
$GPGSA,A,3,04,17,02,28,09,20,12,,,,,,2.22,1.22,1.86*0C
$GPGSV,2,1,08,04,87,208,51,51,52,201,30,02,46,223,43,17,45,046,50*70
$GPGSV,2,2,08,28,37,124,46,09,32,290,50,20,13,050,46,12,12,316,45*7E
$GPRMC,004132.000,A,3047.2696,N,09550.2218,W,5.73,29.24,160907,,,D*43
$GPGGA,004133.000,3047.2712,N,09550.2210,W,2,7,1.22,60.7,M,-23.6,M,0000,0000*5B
$GPGSA,A,3,04,17,02,28,09,20,12,,,,,,2.23,1.22,1.86*0D
$GPGSV,2,1,08,04,87,208,51,51,52,201,32,02,46,223,42,17,45,046,50*73
$GPGSV,2,2,08,28,37,124,46,09,32,290,50,20,13,050,45,12,12,316,45*7D
$GPRMC,004133.000,A,3047.2712,N,09550.2210,W,5.27,21.01,160907,,,D*49
$GPGGA,004134.000,3047.2727,N,09550.2202,W,2,7,1.22,60.9,M,-23.6,M,0000,0000*57
$GPGSA,A,3,04,17,02,28,09,20,12,,,,,,2.22,1.22,1.86*0C
$GPGSV,2,1,08,04,87,208,51,51,52,201,33,02,46,223,42,17,45,046,50*72
$GPGSV,2,2,08,28,37,124,46,09,32,290,50,20,13,050,44,12,12,316,45*7C
$GPRMC,004134.000,A,3047.2727,N,09550.2202,W,5.09,22.21,160907,,,D*46
$GPGGA,004135.000,3047.2742,N,09550.2196,W,2,7,1.22,61.2,M,-23.6,M,0000,0000*51
$GPGSA,A,3,04,17,02,28,09,20,12,,,,,,2.22,1.22,1.86*0C
$GPGSV,2,1,08,04,87,208,51,51,52,201,34,02,46,223,41,17,45,046,50*76
$GPGSV,2,2,08,28,37,124,46,09,32,290,50,20,13,050,45,12,12,316,46*7E
$GPRMC,004135.000,A,3047.2742,N,09550.2196,W,5.00,22.38,160907,,,D*4B
$GPGGA,004136.000,3047.2757,N,09550.2189,W,2,7,1.22,61.2,M,-23.6,M,0000,0000*58
$GPGSA,A,3,04,17,02,28,09,20,12,,,,,,2.22,1.22,1.86*0C
$GPGSV,2,1,08,04,87,208,51,51,52,201,34,02,46,223,41,17,45,046,50*76
$GPGSV,2,2,08,28,37,124,46,09,32,290,50,20,13,050,46,12,12,316,46*7D
$GPRMC,004136.000,A,3047.2757,N,09550.2189,W,5.41,21.46,160907,,,D*4D
$GPGGA,004137.000,3047.2771,N,09550.2181,W,2,7,1.22,60.8,M,-23.6,M,0000,0000*5E
$GPGSA,A,3,04,17,02,28,09,20,12,,,,,,2.22,1.22,1.86*0C
$GPGSV,2,1,08,04,87,209,51,51,52,201,33,02,46,223,42,17,45,046,51*72
$GPGSV,2,2,08,28,37,124,46,09,32,290,50,20,13,050,46,12,12,316,46*7D
$GPRMC,004137.000,A,3047.2771,N,09550.2181,W,5.59,29.56,160907,,,D*40
$GPGGA,004138.000,3047.2786,N,09550.2172,W,2,7,1.22,60.9,M,-23.6,M,0000,0000*54
$GPGSA,A,3,04,17,02,28,09,20,12,,,,,,2.22,1.22,1.86*0C
$GPGSV,2,1,08,04,87,209,51,51,52,201,33,02,46,223,42,17,45,046,51*72
$GPGSV,2,2,08,28,37,124,48,09,32,290,49,20,13,050,46,12,12,316,46*7B
$GPRMC,004138.000,A,3047.2786,N,09550.2172,W,6.24,29.53,160907,,,D*47
$GPGGA,004139.000,3047.2802,N,09550.2160,W,2,7,1.22,60.4,M,-23.6,M,0000,0000*58
$GPGSA,A,3,04,17,02,28,09,20,12,,,,,,2.22,1.22,1.86*0C
$GPGSV,2,1,08,04,87,209,51,51,52,201,34,02,46,223,42,17,45,046,51*75
$GPGSV,2,2,08,28,37,124,49,09,32,290,48,20,13,050,45,12,12,316,45*7B
$GPRMC,004139.000,A,3047.2802,N,09550.2160,W,5.79,33.48,160907,,,D*4C
$GPGGA,004140.000,3047.2812,N,09550.2150,W,2,7,1.22,60.0,M,-23.6,M,0000,0000*50
$GPGSA,A,3,04,17,02,28,09,20,12,,,,,,2.22,1.22,1.86*0C
$GPGSV,2,1,08,04,87,209,51,51,52,201,41,02,46,223,41,17,45,046,51*74
$GPGSV,2,2,08,28,37,124,49,09,32,290,47,20,13,050,46,12,12,316,44*76
$GPRMC,004140.000,A,3047.2812,N,09550.2150,W,5.67,34.70,160907,,,D*43
$GPGGA,004141.000,3047.2826,N,09550.2139,W,2,7,1.22,59.9,M,-23.6,M,0000,0000*5A
$GPGSA,A,3,04,17,02,28,09,20,12,,,,,,2.22,1.22,1.86*0C
$GPGSV,2,1,08,04,87,209,51,51,52,201,42,02,46,223,40,17,45,046,51*76
$GPGSV,2,2,08,28,37,124,49,09,32,290,47,20,13,050,45,12,12,316,43*72
$GPRMC,004141.000,A,3047.2826,N,09550.2139,W,5.71,37.66,160907,,,D*49
$GPGGA,004142.000,3047.2836,N,09550.2129,W,2,7,1.22,59.8,M,-23.6,M,0000,0000*58
$GPGSA,A,3,04,17,02,28,09,20,12,,,,,,2.22,1.22,1.86*0C
$GPGSV,2,1,08,04,87,209,51,51,52,201,42,02,46,223,39,17,45,046,51*78
$GPGSV,2,2,08,28,37,124,48,09,32,289,46,20,13,050,46,12,12,316,43*79
$GPRMC,004142.000,A,3047.2836,N,09550.2129,W,5.23,44.34,160907,,,D*4E
$GPGGA,004143.000,3047.2845,N,09550.2120,W,2,7,1.22,59.9,M,-23.6,M,0000,0000*55
$GPGSA,A,3,04,17,02,28,09,20,12,,,,,,2.22,1.22,1.86*0C
$GPGSV,2,1,08,04,87,209,51,51,52,201,42,02,46,223,38,17,45,046,51*79
$GPGSV,2,2,08,28,37,124,47,09,32,289,45,20,13,050,47,12,12,316,43*74
$GPRMC,004143.000,A,3047.2845,N,09550.2120,W,5.27,45.42,160907,,,D*46
$GPGGA,004144.000,3047.2856,N,09550.2110,W,2,7,1.22,60.6,M,-23.6,M,0000,0000*56
$GPGSA,A,3,04,17,02,28,09,20,12,,,,,,2.22,1.22,1.86*0C
$GPGSV,2,1,08,04,87,209,51,51,52,201,43,02,46,223,39,17,45,046,51*79
$GPGSV,2,2,08,28,37,124,46,09,32,289,44,20,13,050,47,12,12,316,43*74
$GPRMC,004144.000,A,3047.2856,N,09550.2110,W,5.27,48.32,160907,,,D*4A
$GPGGA,004145.000,3047.2864,N,09550.2099,W,2,7,1.22,60.6,M,-23.6,M,0000,0000*56
$GPGSA,A,3,04,17,02,28,09,20,12,,,,,,2.22,1.22,1.86*0C
$GPGSV,2,1,08,04,87,209,51,51,52,201,43,02,46,223,40,17,45,046,51*77
$GPGSV,2,2,08,28,37,124,46,09,32,289,44,20,13,050,47,12,13,316,44*72
$GPRMC,004145.000,A,3047.2864,N,09550.2099,W,4.87,50.24,160907,,,D*4F
$GPGGA,004146.000,3047.2873,N,09550.2089,W,2,7,1.22,60.2,M,-23.6,M,0000,0000*56
$GPGSA,A,3,04,17,02,28,09,20,12,,,,,,2.22,1.22,1.86*0C
$GPGSV,2,1,08,04,87,209,51,51,52,201,44,02,46,223,40,17,45,046,51*70
$GPGSV,2,2,08,28,37,124,46,09,32,289,43,20,13,050,47,12,13,316,44*75
$GPRMC,004146.000,A,3047.2873,N,09550.2089,W,4.63,46.78,160907,,,D*4F
$GPGGA,004147.000,3047.2882,N,09550.2078,W,2,7,1.22,60.2,M,-23.6,M,0000,0000*57
$GPGSA,A,3,04,17,02,28,09,20,12,,,,,,2.22,1.22,1.86*0C
$GPGSV,2,1,08,04,87,209,51,51,52,201,44,02,46,223,41,17,45,046,51*71
