$GPGGA,010439.000,3242.5112,N,09721.5018,W,2,6,1.22,203.6,M,-23.5,M,0000,0000*6A
$GPGSA,A,3,17,28,12,09,04,02,,,,,,,1.52,1.22,0.90*0C
$GPGSV,2,1,08,04,87,152,29,51,50,197,34,02,48,221,29,17,44,052,31*7A
$GPGSV,2,2,08,09,34,283,20,28,32,126,21,12,18,316,21,20,12,048,*79
$GPRMC,010439.000,A,3242.5112,N,09721.5018,W,0.22,228.61,120907,,,D*75
$GPGGA,010440.000,3242.5112,N,09721.5019,W,2,6,1.22,203.6,M,-23.5,M,0000,0000*65
$GPGSA,A,3,17,28,12,09,04,02,,,,,,,1.52,1.22,0.90*0C
$GPGSV,2,1,08,04,87,152,29,51,50,197,34,02,48,221,28,17,44,052,31*7B
$GPGSV,2,2,08,09,34,283,20,28,32,126,20,12,18,316,21,20,12,048,*78
$GPRMC,010440.000,A,3242.5112,N,09721.5019,W,0.38,245.36,120907,,,D*78
$GPGGA,010441.000,3242.5112,N,09721.5020,W,2,6,1.22,203.6,M,-23.5,M,0000,0000*6E
$GPGSA,A,3,17,28,12,09,04,02,,,,,,,1.52,1.22,0.90*0C
$GPGSV,2,1,08,04,87,152,29,51,50,197,34,02,48,221,28,17,44,052,31*7B
$GPGSV,2,2,08,09,34,283,20,28,32,126,20,12,18,316,21,20,12,048,*78
$GPRMC,010441.000,A,3242.5112,N,09721.5020,W,0.37,255.74,120907,,,D*7B
$GPGGA,010442.000,3242.5112,N,09721.5021,W,2,6,1.22,203.6,M,-23.5,M,0000,0000*6C
$GPGSA,A,3,17,28,12,09,04,02,,,,,,,1.52,1.22,0.90*0C
$GPGSV,2,1,08,04,87,152,29,51,50,197,34,02,48,221,28,17,44,052,31*7B
$GPGSV,2,2,08,09,34,283,20,28,32,126,20,12,18,316,21,20,12,048,*78
$GPRMC,010442.000,A,3242.5112,N,09721.5021,W,0.33,268.95,120907,,,D*7C
$GPGGA,010443.000,3242.5112,N,09721.5022,W,2,6,1.22,203.6,M,-23.5,M,0000,0000*6E
$GPGSA,A,3,17,28,12,09,04,02,,,,,,,1.52,1.22,0.90*0C
$GPGSV,2,1,08,04,87,152,29,51,50,197,34,02,48,221,28,17,44,052,31*7B
$GPGSV,2,2,08,09,34,283,20,28,32,126,20,12,18,316,21,20,12,048,*78
$GPRMC,010443.000,A,3242.5112,N,09721.5022,W,0.26,275.11,120907,,,D*7A
$GPGGA,010444.000,3242.5112,N,09721.5023,W,2,6,1.22,203.6,M,-23.5,M,0000,0000*68
$GPGSA,A,3,17,28,12,09,04,02,,,,,,,1.52,1.22,0.90*0C
$GPGSV,2,1,07,04,87,152,30,51,50,197,33,02,48,221,28,17,44,052,31*7B
$GPGSV,2,2,07,09,34,283,20,28,32,127,20,12,18,316,21*4B
$GPRMC,010444.000,A,3242.5112,N,09721.5023,W,0.16,275.11,120907,,,D*7F
$GPGGA,010445.000,3242.5112,N,09721.5024,W,2,6,1.22,203.6,M,-23.5,M,0000,0000*6E
$GPGSA,A,3,17,28,12,09,04,02,,,,,,,1.52,1.22,0.90*0C
$GPGSV,2,1,08,04,87,152,30,51,50,197,33,02,48,221,28,17,44,052,31*74
$GPGSV,2,2,08,09,34,283,20,28,32,127,21,12,18,316,21,20,12,048,*78
$GPRMC,010445.000,A,3242.5112,N,09721.5024,W,0.24,264.54,120907,,,D*79
$GPGGA,010446.000,3242.5112,N,09721.5023,W,2,6,1.22,203.6,M,-23.5,M,0000,0000*6A
$GPGSA,A,3,17,28,12,09,04,02,,,,,,,1.52,1.22,0.90*0C
$GPGSV,2,1,08,04,87,152,30,51,50,197,33,02,48,221,28,17,44,052,31*74
$GPGSV,2,2,08,09,34,283,20,28,32,127,21,12,18,316,22,20,12,048,*7B
$GPRMC,010446.000,A,3242.5112,N,09721.5023,W,0.14,264.54,120907,,,D*7E
$GPGGA,010447.000,3242.5112,N,09721.5023,W,2,6,1.22,203.6,M,-23.5,M,0000,0000*6B
$GPGSA,A,3,17,28,12,09,04,02,,,,,,,1.52,1.22,0.90*0C
$GPGSV,2,1,08,04,87,152,30,51,50,197,33,02,48,221,27,17,44,052,31*7B
$GPGSV,2,2,08,09,34,283,21,28,32,127,21,12,18,316,22,20,12,048,*7A
$GPRMC,010447.000,A,3242.5112,N,09721.5023,W,0.26,310.43,120907,,,D*7A
$GPGGA,010448.000,3242.5113,N,09721.5023,W,2,6,1.22,203.6,M,-23.5,M,0000,0000*65
$GPGSA,A,3,17,28,12,09,04,02,,,,,,,1.52,1.22,0.90*0C
$GPGSV,2,1,08,04,87,152,30,51,50,197,33,02,48,221,27,17,44,052,31*7B
$GPGSV,2,2,08,09,34,283,21,28,32,127,22,12,18,316,22,20,12,048,*79
$GPRMC,010448.000,A,3242.5113,N,09721.5023,W,0.44,337.31,120907,,,D*70
$GPGGA,010449.000,3242.5114,N,09721.5023,W,2,6,1.27,203.6,M,-23.5,M,0000,0000*66
$GPGSA,A,3,17,28,12,09,04,02,,,,,,,2.46,1.27,2.11*04
$GPGSV,2,1,08,04,87,152,30,51,50,197,33,02,48,221,28,17,44,052,31*74
$GPGSV,2,2,08,09,34,283,21,28,32,127,22,12,18,316,22,20,12,048,*79
$GPRMC,010449.000,A,3242.5114,N,09721.5023,W,0.41,345.08,120907,,,D*7C
$GPGGA,010450.000,3242.5116,N,09721.5023,W,2,6,1.27,203.6,M,-23.5,M,0000,0000*6C
$GPGSA,A,3,17,28,12,09,04,02,,,,,,,2.46,1.27,2.11*04
$GPGSV,2,1,08,04,87,152,30,51,50,197,33,02,49,222,27,17,44,052,31*79
$GPGSV,2,2,08,09,34,283,21,28,32,127,23,12,18,316,22,20,12,048,*78
$GPRMC,010450.000,A,3242.5116,N,09721.5023,W,0.42,358.54,120907,,,D*70
$GPGGA,010451.000,3242.5117,N,09721.5023,W,2,6,1.22,203.6,M,-23.5,M,0000,0000*69
$GPGSA,A,3,17,28,12,09,04,02,,,,,,,1.52,1.22,0.90*0C
$GPGSV,2,1,08,04,87,152,30,51,50,197,33,02,49,222,27,17,44,052,31*79
$GPGSV,2,2,08,09,34,283,21,28,32,127,21,12,18,316,22,20,12,048,*7A
$GPRMC,010451.000,A,3242.5117,N,09721.5023,W,0.51,8.21,120907,,,D*76
$GPGGA,010452.000,3242.5118,N,09721.5022,W,2,6,1.22,203.6,M,-23.5,M,0000,0000*64
$GPGSA,A,3,17,28,12,09,04,02,,,,,,,1.52,1.22,0.90*0C
$GPGSV,2,1,08,04,88,147,30,51,50,197,33,02,49,222,27,17,44,052,31*72
$GPGSV,2,2,08,09,34,283,21,28,32,127,21,12,18,316,22,20,12,048,*7A
$GPRMC,010452.000,A,3242.5118,N,09721.5022,W,0.47,14.75,120907,,,D*40
$GPGGA,010453.000,3242.5119,N,09721.5022,W,2,6,1.22,203.6,M,-23.5,M,0000,0000*64
$GPGSA,A,3,17,28,12,09,04,02,,,,,,,1.52,1.22,0.90*0C
$GPGSV,2,1,08,04,88,147,30,51,50,197,33,02,49,222,27,17,44,052,31*72
$GPGSV,2,2,08,09,34,283,21,28,32,127,21,12,18,316,22,20,12,048,*7A
$GPRMC,010453.000,A,3242.5119,N,09721.5022,W,0.08,14.75,120907,,,D*4B
$GPGGA,010454.000,3242.5119,N,09721.5022,W,2,6,1.22,203.7,M,-23.5,M,0000,0000*62
$GPGSA,A,3,17,28,12,09,04,02,,,,,,,1.52,1.22,0.90*0C
$GPGSV,2,1,08,04,88,147,31,51,50,197,34,02,49,222,27,17,44,052,31*74
$GPGSV,2,2,08,09,34,283,21,28,32,127,22,12,18,316,22,20,12,048,*79
$GPRMC,010454.000,A,3242.5119,N,09721.5022,W,0.10,14.75,120907,,,D*45
$GPGGA,010455.000,3242.5119,N,09721.5022,W,2,6,1.22,203.7,M,-23.5,M,0000,0000*63
$GPGSA,A,3,17,28,12,09,04,02,,,,,,,1.52,1.22,0.90*0C
$GPGSV,2,1,08,04,88,147,31,51,50,197,34,02,49,222,26,17,44,052,30*74
$GPGSV,2,2,08,09,34,283,21,28,32,127,22,12,18,316,22,20,12,048,*79
$GPRMC,010455.000,A,3242.5119,N,09721.5022,W,0.12,14.75,120907,,,D*46
$GPGGA,010456.000,3242.5119,N,09721.5022,W,2,6,1.22,203.7,M,-23.5,M,0000,0000*60
$GPGSA,A,3,17,28,12,09,04,02,,,,,,,1.52,1.22,0.90*0C
$GPGSV,2,1,08,04,88,147,31,51,50,197,34,02,49,222,25,17,44,052,30*77
$GPGSV,2,2,08,09,34,283,21,28,32,127,21,12,18,316,21,20,12,048,*79
$GPRMC,010456.000,A,3242.5119,N,09721.5022,W,0.17,14.75,120907,,,D*40
$GPGGA,010457.000,3242.5119,N,09721.5023,W,2,6,1.22,203.7,M,-23.5,M,0000,0000*60
$GPGSA,A,3,17,28,12,09,04,02,,,,,,,1.52,1.22,0.90*0C
$GPGSV,2,1,08,04,88,147,31,51,50,197,34,02,49,222,25,17,44,052,30*77
$GPGSV,2,2,08,09,34,283,22,28,32,127,22,12,18,316,21,20,12,048,*79
$GPRMC,010457.000,A,3242.5119,N,09721.5023,W,0.30,337.51,120907,,,D*71
$GPGGA,010458.000,3242.5120,N,09721.5023,W,2,6,1.22,203.7,M,-23.5,M,0000,0000*65
$GPGSA,A,3,17,28,12,09,04,02,,,,,,,1.52,1.22,0.90*0C
$GPGSV,2,1,08,04,88,147,31,51,50,197,34,02,49,222,25,17,44,052,30*77
$GPGSV,2,2,08,09,34,283,22,28,32,127,23,12,18,316,21,20,12,048,*78
$GPRMC,010458.000,A,3242.5120,N,09721.5023,W,0.34,338.42,120907,,,D*7D
$GPGGA,010459.000,3242.5121,N,09721.5024,W,2,6,1.22,203.7,M,-23.5,M,0000,0000*62
$GPGSA,A,3,17,28,12,09,04,02,,,,,,,1.52,1.22,0.90*0C
$GPGSV,2,1,08,04,88,147,31,51,50,197,34,02,49,222,25,17,44,052,30*77
$GPGSV,2,2,08,09,34,283,22,28,32,127,23,12,18,316,21,20,12,048,*78
$GPRMC,010459.000,A,3242.5121,N,09721.5024,W,0.08,338.42,120907,,,D*75
$GPGGA,010500.000,3242.5121,N,09721.5024,W,2,6,1.27,203.7,M,-23.5,M,0000,0000*6A
$GPGSA,A,3,17,28,12,09,04,02,,,,,,,2.46,1.27,2.11*04
$GPGSV,2,1,08,04,88,147,31,51,50,197,34,02,49,222,25,17,44,052,30*77
$GPGSV,2,2,08,09,34,283,22,28,32,127,23,12,18,316,21,20,12,048,*78
$GPRMC,010500.000,A,3242.5121,N,09721.5024,W,0.14,338.42,120907,,,D*75
$GPGGA,010501.000,3242.5121,N,09721.5024,W,2,6,1.22,203.8,M,-23.5,M,0000,0000*61
$GPGSA,A,3,17,28,12,09,04,02,,,,,,,1.52,1.22,0.90*0C
$GPGSV,2,1,08,04,88,147,31,51,50,197,34,02,49,222,24,17,44,052,30*76
$GPGSV,2,2,08,09,34,283,21,28,32,127,23,12,18,316,21,20,12,048,*7B
$GPRMC,010501.000,A,3242.5121,N,09721.5024,W,0.10,338.42,120907,,,D*70
$GPGGA,010502.000,3242.5121,N,09721.5024,W,2,6,1.22,203.8,M,-23.5,M,0000,0000*62
$GPGSA,A,3,17,28,12,09,04,02,,,,,,,1.52,1.22,0.90*0C
$GPGSV,2,1,08,04,88,147,30,51,50,197,34,02,49,222,25,17,44,052,30*76
$GPGSV,2,2,08,09,34,283,21,28,32,127,22,12,18,316,21,20,12,048,*7A
$GPRMC,010502.000,A,3242.5121,N,09721.5024,W,0.40,173.38,120907,,,D*76
$GPGGA,010503.000,3242.5119,N,09721.5024,W,2,6,1.22,203.8,M,-23.5,M,0000,0000*68
$GPGSA,A,3,17,28,12,09,04,02,,,,,,,1.52,1.22,0.90*0C
$GPGSV,2,1,08,04,88,147,30,51,50,197,34,02,49,222,25,17,44,052,30*76
$GPGSV,2,2,08,09,34,283,21,28,32,127,23,12,18,316,21,20,12,048,*7B
$GPRMC,010503.000,A,3242.5119,N,09721.5024,W,0.35,178.83,120907,,,D*75
$GPGGA,010504.000,3242.5118,N,09721.5024,W,2,6,1.22,203.8,M,-23.5,M,0000,0000*6E
$GPGSA,A,3,17,28,12,09,04,02,,,,,,,1.52,1.22,0.90*0C
$GPGSV,2,1,08,04,88,147,30,51,50,197,34,02,49,222,24,17,44,052,30*77
$GPGSV,2,2,08,09,34,283,22,28,32,127,23,12,18,316,21,20,12,048,*78
$GPRMC,010504.000,A,3242.5118,N,09721.5024,W,0.13,178.83,120907,,,D*77
$GPGGA,010505.000,3242.5118,N,09721.5024,W,2,6,1.22,203.8,M,-23.5,M,0000,0000*6F
$GPGSA,A,3,17,28,12,09,04,02,,,,,,,1.52,1.22,0.90*0C
$GPGSV,2,1,08,04,88,147,29,51,50,197,34,02,49,222,24,17,44,052,30*7F
$GPGSV,2,2,08,09,34,283,22,28,32,127,23,12,18,316,21,20,12,048,*78
$GPRMC,010505.000,A,3242.5118,N,09721.5024,W,0.10,178.83,120907,,,D*75
$GPGGA,010506.000,3242.5118,N,09721.5024,W,2,6,1.22,203.8,M,-23.5,M,0000,0000*6C
$GPGSA,A,3,17,28,12,09,04,02,,,,,,,1.52,1.22,0.90*0C
$GPGSV,2,1,08,04,88,147,29,51,50,197,34,02,49,222,24,17,44,052,30*7F
$GPGSV,2,2,08,09,34,283,22,28,32,127,23,12,18,316,21,20,12,048,*78
$GPRMC,010506.000,A,3242.5118,N,09721.5024,W,0.31,279.40,120907,,,D*78
$GPGGA,010507.000,3242.5119,N,09721.5025,W,2,6,1.22,203.9,M,-23.5,M,0000,0000*6C
$GPGSA,A,3,17,28,12,09,04,02,,,,,,,1.52,1.22,0.90*0C
$GPGSV,2,1,08,04,88,147,29,51,50,197,34,02,49,222,24,17,44,052,30*7F
$GPGSV,2,2,08,09,34,283,22,28,32,127,23,12,18,316,21,20,12,048,*78
$GPRMC,010507.000,A,3242.5119,N,09721.5025,W,0.16,279.40,120907,,,D*7C
$GPGGA,010508.000,3242.5120,N,09721.5024,W,2,6,1.22,203.9,M,-23.5,M,0000,0000*68
$GPGSA,A,3,17,28,12,09,04,02,,,,,,,1.52,1.22,0.90*0C
$GPGSV,2,1,08,04,88,147,29,51,50,197,34,02,49,222,24,17,44,052,30*7F
$GPGSV,2,2,08,09,34,283,22,28,32,127,23,12,18,316,21,20,12,048,*78
$GPRMC,010508.000,A,3242.5120,N,09721.5024,W,0.31,27.11,120907,,,D*40
$GPGGA,010509.000,3242.5120,N,09721.5024,W,2,6,1.22,203.9,M,-23.5,M,0000,0000*69
$GPGSA,A,3,17,28,12,09,04,02,,,,,,,1.52,1.22,0.90*0C
$GPGSV,2,1,08,04,88,147,29,51,50,197,34,02,49,222,23,17,44,052,30*78
$GPGSV,2,2,08,09,34,283,22,28,32,127,23,12,18,316,21,20,12,048,*78
$GPRMC,010509.000,A,3242.5120,N,09721.5024,W,0.23,35.21,120907,,,D*42
$GPGGA,010510.000,3242.5121,N,09721.5023,W,2,6,1.22,203.9,M,-23.5,M,0000,0000*67
$GPGSA,A,3,17,28,12,09,04,02,,,,,,,1.52,1.22,0.90*0C
$GPGSV,2,1,08,04,88,147,29,51,50,197,34,02,49,222,22,17,44,052,30*79
$GPGSV,2,2,08,09,34,283,22,28,32,127,23,12,18,316,21,20,12,048,*78
$GPRMC,010510.000,A,3242.5121,N,09721.5023,W,0.34,47.82,120907,,,D*46
$GPGGA,010511.000,3242.5121,N,09721.5022,W,2,6,1.22,203.9,M,-23.5,M,0000,0000*67
$GPGSA,A,3,17,28,12,09,04,02,,,,,,,1.52,1.22,0.90*0C
$GPGSV,2,1,08,04,88,147,29,51,50,197,34,02,49,222,21,17,44,052,30*7A
$GPGSV,2,2,08,09,34,283,22,28,32,127,23,12,18,316,22,20,12,048,*7B
$GPRMC,010511.000,A,3242.5121,N,09721.5022,W,0.32,57.19,120907,,,D*43
$GPGGA,010512.000,3242.5121,N,09721.5021,W,2,6,1.22,203.9,M,-23.5,M,0000,0000*67
$GPGSA,A,3,17,28,12,09,04,02,,,,,,,1.52,1.22,0.90*0C
$GPGSV,2,1,08,04,88,147,29,51,50,197,34,02,49,222,21,17,44,052,30*7A
$GPGSV,2,2,08,09,34,283,22,28,32,127,23,12,18,316,22,20,12,048,*7B
$GPRMC,010512.000,A,3242.5121,N,09721.5021,W,0.19,57.19,120907,,,D*4A
$GPGGA,010513.000,3242.5122,N,09721.5021,W,2,6,1.22,203.9,M,-23.5,M,0000,0000*65
$GPGSA,A,3,17,28,12,09,04,02,,,,,,,1.52,1.22,0.90*0C
$GPGSV,2,1,08,04,88,147,29,51,50,197,34,02,49,222,20,17,44,052,30*7B
$GPGSV,2,2,08,09,34,283,22,28,32,127,23,12,18,316,22,20,12,048,*7B
$GPRMC,010513.000,A,3242.5122,N,09721.5021,W,0.15,57.19,120907,,,D*44
$GPGGA,010514.000,3242.5122,N,09721.5021,W,2,6,1.27,204.0,M,-23.5,M,0000,0000*69
$GPGSA,A,3,17,28,12,09,04,02,,,,,,,2.45,1.27,2.10*06
$GPGSV,2,1,08,04,88,147,29,51,50,197,33,02,49,222,20,17,44,052,30*7C
$GPGSV,2,2,08,09,34,283,22,28,32,127,22,12,18,316,22,20,12,048,*7A
$GPRMC,010514.000,A,3242.5122,N,09721.5021,W,0.16,57.19,120907,,,D*40
$GPGGA,010515.000,3242.5122,N,09721.5020,W,2,6,1.22,204.0,M,-23.5,M,0000,0000*6C
$GPGSA,A,3,17,28,12,09,04,02,,,,,,,1.52,1.22,0.90*0C
$GPGSV,2,1,08,04,88,147,29,51,50,197,33,02,49,222,20,17,44,052,30*7C
$GPGSV,2,2,08,09,34,283,23,28,32,127,22,12,18,316,22,20,12,048,*7B
$GPRMC,010515.000,A,3242.5122,N,09721.5020,W,0.06,57.19,120907,,,D*41
$GPGGA,010516.000,3242.5122,N,09721.5020,W,2,6,1.22,204.0,M,-23.5,M,0000,0000*6F
$GPGSA,A,3,17,28,12,09,04,02,,,,,,,1.52,1.22,0.90*0C
$GPGSV,2,1,08,04,88,147,29,51,50,197,33,02,49,222,20,17,44,052,31*7D
$GPGSV,2,2,08,09,34,283,23,28,31,127,22,12,18,316,22,20,12,048,*78
$GPRMC,010516.000,A,3242.5122,N,09721.5020,W,0.21,89.79,120907,,,D*42
$GPGGA,010517.000,3242.5122,N,09721.5020,W,2,6,1.22,204.0,M,-23.5,M,0000,0000*6E
$GPGSA,A,3,17,28,12,09,04,02,,,,,,,1.52,1.22,0.90*0C
$GPGSV,2,1,08,04,88,147,29,51,50,197,33,02,49,222,20,17,44,052,31*7D
$GPGSV,2,2,08,09,34,283,23,28,31,127,22,12,18,316,23,20,12,048,*79
$GPRMC,010517.000,A,3242.5122,N,09721.5020,W,0.36,124.14,120907,,,D*78
$GPGGA,010518.000,3242.5121,N,09721.5019,W,2,6,1.22,204.1,M,-23.5,M,0000,0000*69
$GPGSA,A,3,17,28,12,09,04,02,,,,,,,1.52,1.22,0.90*0C
$GPGSV,2,1,08,04,88,147,29,51,50,197,33,02,49,222,21,17,44,052,31*7C
$GPGSV,2,2,08,09,34,283,23,28,31,127,21,12,18,316,23,20,12,048,*7A
$GPRMC,010518.000,A,3242.5121,N,09721.5019,W,0.40,138.26,120907,,,D*73
$GPGGA,010519.000,3242.5120,N,09721.5019,W,2,6,1.22,204.1,M,-23.5,M,0000,0000*69
$GPGSA,A,3,17,28,12,09,04,02,,,,,,,1.52,1.22,0.90*0C
$GPGSV,2,1,08,04,88,147,29,51,50,197,33,02,49,222,21,17,44,052,31*7C
$GPGSV,2,2,08,09,34,283,23,28,31,127,20,12,18,316,23,20,12,048,*7B
$GPRMC,010519.000,A,3242.5120,N,09721.5019,W,0.53,144.95,120907,,,D*72
$GPGGA,010520.000,3242.5118,N,09721.5018,W,2,6,1.22,204.1,M,-23.5,M,0000,0000*69
$GPGSA,A,3,17,28,12,09,04,02,,,,,,,1.52,1.22,0.90*0C
$GPGSV,2,1,08,04,88,147,29,51,50,197,33,02,49,222,21,17,44,052,31*7C
$GPGSV,2,2,08,09,34,283,23,28,31,127,20,12,18,316,23,20,12,048,*7B
$GPRMC,010520.000,A,3242.5118,N,09721.5018,W,0.43,152.56,120907,,,D*7B
$GPGGA,010521.000,3242.5117,N,09721.5018,W,2,6,1.22,204.1,M,-23.5,M,0000,0000*67
$GPGSA,A,3,17,28,12,09,04,02,,,,,,,1.52,1.22,0.90*0C
$GPGSV,2,1,08,04,88,147,29,51,50,197,33,02,49,222,22,17,44,052,31*7F
$GPGSV,2,2,08,09,34,283,22,28,31,127,20,12,18,316,23,20,12,048,*7A
$GPRMC,010521.000,A,3242.5117,N,09721.5018,W,0.37,159.53,120907,,,D*78
$GPGGA,010522.000,3242.5116,N,09721.5018,W,2,6,1.22,204.1,M,-23.5,M,0000,0000*65
$GPGSA,A,3,17,28,12,09,04,02,,,,,,,1.52,1.22,0.90*0C
$GPGSV,2,1,08,04,88,147,28,51,50,197,33,02,49,222,22,17,44,052,31*7E
$GPGSV,2,2,08,09,34,283,22,28,31,127,19,12,18,316,23,20,12,048,*70
$GPRMC,010522.000,A,3242.5116,N,09721.5018,W,0.44,166.94,120907,,,D*79
$GPGGA,010523.000,3242.5115,N,09721.5018,W,2,6,1.22,204.1,M,-23.5,M,0000,0000*67
$GPGSA,A,3,17,28,12,09,04,02,,,,,,,1.52,1.22,0.90*0C
$GPGSV,2,1,08,04,88,147,28,51,50,197,33,02,49,222,22,17,44,052,31*7E
$GPGSV,2,2,08,09,34,283,22,28,31,127,19,12,18,316,23,20,12,048,*70
$GPRMC,010523.000,A,3242.5115,N,09721.5018,W,0.42,169.24,120907,,,D*79
$GPGGA,010524.000,3242.5113,N,09721.5017,W,2,6,1.22,204.1,M,-23.5,M,0000,0000*69
$GPGSA,A,3,17,28,12,09,04,02,,,,,,,1.52,1.22,0.90*0C
$GPGSV,2,1,08,04,88,141,28,51,50,197,33,02,49,222,23,17,44,052,31*79
$GPGSV,2,2,08,09,34,283,22,28,31,127,19,12,18,316,23,20,12,048,*70
$GPRMC,010524.000,A,3242.5113,N,09721.5017,W,0.44,165.24,120907,,,D*7D
$GPGGA,010525.000,3242.5112,N,09721.5017,W,2,6,1.22,204.1,M,-23.5,M,0000,0000*69
$GPGSA,A,3,17,28,12,09,04,02,,,,,,,1.52,1.22,0.90*0C
$GPGSV,2,1,08,04,88,141,28,51,50,197,33,02,49,222,23,17,44,052,31*79
$GPGSV,2,2,08,09,34,283,22,28,31,127,19,12,18,316,23,20,12,048,*70
$GPRMC,010525.000,A,3242.5112,N,09721.5017,W,0.59,164.43,120907,,,D*71
$GPGGA,010526.000,3242.5108,N,09721.5017,W,2,6,1.22,204.2,M,-23.5,M,0000,0000*62
$GPGSA,A,3,17,28,12,09,04,02,,,,,,,1.52,1.22,0.90*0C
$GPGSV,2,1,08,04,88,141,28,51,50,197,33,02,49,222,22,17,44,052,31*78
$GPGSV,2,2,08,09,34,283,22,28,31,127,20,12,18,316,23,20,12,048,*7A
$GPRMC,010526.000,A,3242.5108,N,09721.5017,W,0.65,166.08,120907,,,D*7B
$GPGGA,010527.000,3242.5105,N,09721.5017,W,2,6,1.22,204.4,M,-23.5,M,0000,0000*68
$GPGSA,A,3,17,28,12,09,04,02,,,,,,,1.52,1.22,0.90*0C
$GPGSV,2,1,08,04,88,141,28,51,50,197,33,02,49,222,21,17,44,052,31*7B
$GPGSV,2,2,08,09,34,283,22,28,31,127,20,12,18,316,23,20,12,048,*7A
$GPRMC,010527.000,A,3242.5105,N,09721.5017,W,0.39,167.58,120907,,,D*7A
$GPGGA,010528.000,3242.5107,N,09721.5009,W,2,6,1.22,204.6,M,-23.5,M,0000,0000*68
$GPGSA,A,3,17,28,12,09,04,02,,,,,,,1.52,1.22,0.90*0C
$GPGSV,2,1,08,04,88,141,27,51,50,197,34,02,49,222,21,17,44,052,31*73
$GPGSV,2,2,08,09,34,283,22,28,31,127,20,12,18,316,23,20,12,048,*7A
$GPRMC,010528.000,A,3242.5107,N,09721.5009,W,0.16,167.58,120907,,,D*75
$GPGGA,010529.000,3242.5105,N,09721.5008,W,2,6,1.22,204.8,M,-23.5,M,0000,0000*64
$GPGSA,A,3,17,28,12,09,04,02,,,,,,,1.52,1.22,0.90*0C
$GPGSV,2,1,08,04,88,141,28,51,50,197,33,02,49,222,21,17,44,052,31*7B
$GPGSV,2,2,08,09,34,283,22,28,31,127,20,12,18,316,24,20,12,048,*7D
$GPRMC,010529.000,A,3242.5105,N,09721.5008,W,0.15,167.58,120907,,,D*74
$GPGGA,010530.000,3242.5106,N,09721.5007,W,2,6,1.22,204.9,M,-23.5,M,0000,0000*61
$GPGSA,A,3,17,28,12,09,04,02,,,,,,,1.52,1.22,0.90*0C
$GPGSV,2,1,08,04,88,141,27,51,50,197,34,02,49,222,22,17,44,052,31*70
$GPGSV,2,2,08,09,34,283,22,28,31,127,20,12,18,316,24,20,12,048,*7D
$GPRMC,010530.000,A,3242.5106,N,09721.5007,W,0.25,185.03,120907,,,D*71
$GPGGA,010531.000,3242.5107,N,09721.5008,W,2,6,1.22,204.9,M,-23.5,M,0000,0000*6E
$GPGSA,A,3,17,28,12,09,04,02,,,,,,,1.52,1.22,0.90*0C
$GPGSV,2,1,08,04,88,141,27,51,50,197,34,02,49,222,22,17,44,052,30*71
$GPGSV,2,2,08,09,34,283,20,28,31,127,20,12,18,316,24,20,12,048,*7F
$GPRMC,010531.000,A,3242.5107,N,09721.5008,W,0.19,185.03,120907,,,D*71
$GPGGA,010532.000,3242.5107,N,09721.5008,W,2,6,1.22,204.9,M,-23.5,M,0000,0000*6D
$GPGSA,A,3,17,28,12,09,04,02,,,,,,,1.52,1.22,0.90*0C
$GPGSV,2,1,08,04,88,141,27,51,50,197,33,02,49,222,22,17,44,052,30*76
$GPGSV,2,2,08,09,34,283,20,28,31,127,20,12,18,316,24,20,12,048,*7F
$GPRMC,010532.000,A,3242.5107,N,09721.5008,W,0.13,185.03,120907,,,D*78
$GPGGA,010533.000,3242.5106,N,09721.5008,W,2,6,1.22,204.9,M,-23.5,M,0000,0000*6D
$GPGSA,A,3,17,28,12,09,04,02,,,,,,,1.52,1.22,0.90*0C
$GPGSV,2,1,08,04,88,141,27,51,50,197,33,02,49,222,23,17,44,052,30*77
$GPGSV,2,2,08,09,34,283,19,28,31,127,20,12,18,316,25,20,12,048,*74
$GPRMC,010533.000,A,3242.5106,N,09721.5008,W,0.17,185.03,120907,,,D*7C
$GPGGA,010534.000,3242.5106,N,09721.5008,W,2,6,1.22,204.9,M,-23.5,M,0000,0000*6A
$GPGSA,A,3,17,28,12,09,04,02,,,,,,,1.52,1.22,0.90*0C
$GPGSV,2,1,08,04,88,141,27,51,50,197,33,02,49,222,23,17,44,052,30*77
$GPGSV,2,2,08,09,34,283,19,28,31,127,20,12,18,316,25,20,12,048,*74
$GPRMC,010534.000,A,3242.5106,N,09721.5008,W,0.21,191.08,120907,,,D*70
$GPGGA,010535.000,3242.5105,N,09721.5008,W,2,6,1.22,204.9,M,-23.5,M,0000,0000*68
$GPGSA,A,3,17,28,12,09,04,02,,,,,,,1.52,1.22,0.90*0C
$GPGSV,2,1,08,04,88,141,27,51,50,197,33,02,49,222,23,17,44,052,30*77
$GPGSV,2,2,08,09,34,283,18,28,31,127,20,12,18,316,25,20,12,048,*75
$GPRMC,010535.000,A,3242.5105,N,09721.5008,W,0.19,191.08,120907,,,D*79
$GPGGA,010536.000,3242.5105,N,09721.5008,W,2,6,1.22,204.9,M,-23.5,M,0000,0000*6B
$GPGSA,A,3,17,28,12,09,04,02,,,,,,,1.52,1.22,0.90*0C
$GPGSV,2,1,08,04,88,141,26,51,50,197,34,02,49,222,23,17,44,052,30*71
$GPGSV,2,2,08,09,34,283,18,28,31,127,20,12,18,316,25,20,12,048,*75
$GPRMC,010536.000,A,3242.5105,N,09721.5008,W,0.40,120.43,120907,,,D*73
$GPGGA,010537.000,3242.5106,N,09721.5007,W,2,6,1.22,204.9,M,-23.5,M,0000,0000*66
$GPGSA,A,3,17,28,12,09,04,02,,,,,,,1.52,1.22,0.90*0C
$GPGSV,2,1,08,04,88,141,25,51,50,197,34,02,49,222,22,17,43,052,30*74
$GPGSV,2,2,08,09,34,283,18,28,31,127,21,12,18,316,25,20,12,048,*74
$GPRMC,010537.000,A,3242.5106,N,09721.5007,W,0.34,103.99,120907,,,D*7B
$GPGGA,010538.000,3242.5106,N,09721.5005,W,2,6,1.22,204.9,M,-23.5,M,0000,0000*6B
$GPGSA,A,3,17,28,12,09,04,02,,,,,,,1.52,1.22,0.90*0C
$GPGSV,2,1,08,04,88,141,25,51,50,197,33,02,49,222,22,17,43,052,30*73
$GPGSV,2,2,08,09,34,283,19,28,31,127,21,12,18,316,25,20,12,048,*75
$GPRMC,010538.000,A,3242.5106,N,09721.5005,W,0.16,103.99,120907,,,D*76
$GPGGA,010539.000,3242.5105,N,09721.5005,W,2,6,1.22,204.9,M,-23.5,M,0000,0000*69
$GPGSA,A,3,17,28,12,09,04,02,,,,,,,1.52,1.22,0.90*0C
$GPGSV,2,1,08,04,88,141,25,51,50,197,33,02,49,222,22,17,43,052,30*73
$GPGSV,2,2,08,09,34,283,19,28,31,127,21,12,18,316,25,20,12,048,*75
$GPRMC,010539.000,A,3242.5105,N,09721.5005,W,0.17,103.99,120907,,,D*75
$GPGGA,010540.000,3242.5106,N,09721.5005,W,2,6,1.22,204.9,M,-23.5,M,0000,0000*64
$GPGSA,A,3,17,28,12,09,04,02,,,,,,,1.52,1.22,0.90*0C
$GPGSV,2,1,08,04,88,141,25,51,50,197,33,02,49,222,22,17,43,052,30*73
$GPGSV,2,2,08,09,34,283,19,28,31,127,21,12,18,316,25,20,12,048,*75
$GPRMC,010540.000,A,3242.5106,N,09721.5005,W,0.07,103.99,120907,,,D*79
$GPGGA,010541.000,3242.5106,N,09721.5004,W,2,6,1.22,204.9,M,-23.5,M,0000,0000*64
$GPGSA,A,3,17,28,12,09,04,02,,,,,,,1.52,1.22,0.90*0C
$GPGSV,2,1,08,04,88,141,25,51,50,197,33,02,49,222,22,17,43,052,30*73
$GPGSV,2,2,08,09,34,283,20,28,31,127,21,12,18,316,25,20,12,048,*7F
$GPRMC,010541.000,A,3242.5106,N,09721.5004,W,0.09,103.99,120907,,,D*77
$GPGGA,010542.000,3242.5105,N,09721.5005,W,2,6,1.22,204.9,M,-23.5,M,0000,0000*65
$GPGSA,A,3,17,28,12,09,04,02,,,,,,,1.52,1.22,0.90*0C
$GPGSV,2,1,08,04,88,141,25,51,50,197,33,02,49,222,23,17,43,052,30*72
$GPGSV,2,2,08,09,34,283,20,28,31,127,21,12,18,316,25,20,12,048,*7F
$GPRMC,010542.000,A,3242.5105,N,09721.5005,W,0.20,151.53,120907,,,D*7C
$GPGGA,010543.000,3242.5105,N,09721.5005,W,2,6,1.22,204.9,M,-23.5,M,0000,0000*64
$GPGSA,A,3,17,28,12,09,04,02,,,,,,,1.52,1.22,0.90*0C
$GPGSV,2,1,08,04,88,141,26,51,50,197,33,02,49,222,23,17,43,052,30*71
$GPGSV,2,2,08,09,34,283,19,28,31,127,22,12,18,316,25,20,12,048,*76
$GPRMC,010543.000,A,3242.5105,N,09721.5005,W,0.06,151.53,120907,,,D*79
$GPGGA,010544.000,3242.5105,N,09721.5005,W,2,6,1.22,204.9,M,-23.5,M,0000,0000*63
$GPGSA,A,3,17,28,12,09,04,02,,,,,,,1.52,1.22,0.90*0C
$GPGSV,2,1,08,04,88,141,26,51,50,197,33,02,49,222,24,17,43,052,30*76
$GPGSV,2,2,08,09,34,283,19,28,31,127,22,12,18,316,25,20,12,048,*76
$GPRMC,010544.000,A,3242.5105,N,09721.5005,W,0.05,151.53,120907,,,D*7D
$GPGGA,010545.000,3242.5105,N,09721.5005,W,2,6,1.22,204.9,M,-23.5,M,0000,0000*62
$GPGSA,A,3,17,28,12,09,04,02,,,,,,,1.52,1.22,0.90*0C
$GPGSV,2,1,08,04,88,141,26,51,50,197,33,02,49,222,24,17,43,052,30*76
$GPGSV,2,2,08,09,34,283,19,28,31,127,22,12,18,316,25,20,12,048,*76
$GPRMC,010545.000,A,3242.5105,N,09721.5005,W,0.35,172.30,120907,,,D*7B
$GPGGA,010546.000,3242.5104,N,09721.5005,W,2,6,1.22,204.9,M,-23.5,M,0000,0000*60
$GPGSA,A,3,17,28,12,09,04,02,,,,,,,1.52,1.22,0.90*0C
$GPGSV,2,1,08,04,88,141,26,51,50,197,33,02,49,222,24,17,43,052,30*76
$GPGSV,2,2,08,09,34,283,19,28,31,127,21,12,18,316,25,20,12,048,*75
$GPRMC,010546.000,A,3242.5104,N,09721.5005,W,0.46,173.62,120907,,,D*7B
$GPGGA,010547.000,3242.5103,N,09721.5005,W,2,6,1.22,204.9,M,-23.5,M,0000,0000*66
$GPGSA,A,3,17,28,12,09,04,02,,,,,,,1.52,1.22,0.90*0C
$GPGSV,2,1,08,04,88,141,26,51,50,197,33,02,49,222,24,17,43,052,30*76
$GPGSV,2,2,08,09,34,283,18,28,31,127,21,12,18,316,25,20,12,048,*74
$GPRMC,010547.000,A,3242.5103,N,09721.5005,W,0.41,174.72,120907,,,D*7C
$GPGGA,010548.000,3242.5102,N,09721.5005,W,2,6,1.22,204.9,M,-23.5,M,0000,0000*68
$GPGSA,A,3,17,28,12,09,04,02,,,,,,,1.52,1.22,0.90*0C
$GPGSV,2,1,08,04,88,141,25,51,50,197,33,02,49,222,24,17,43,052,30*75
$GPGSV,2,2,08,09,34,283,18,28,31,127,21,12,18,316,25,20,12,048,*74
$GPRMC,010548.000,A,3242.5102,N,09721.5005,W,0.31,176.34,120907,,,D*75
$GPGGA,010549.000,3242.5101,N,09721.5005,W,2,6,1.22,204.9,M,-23.5,M,0000,0000*6A
$GPGSA,A,3,17,28,12,09,04,02,,,,,,,1.52,1.22,0.90*0C
$GPGSV,2,1,08,04,88,141,26,51,50,197,33,02,49,222,24,17,43,052,30*76
$GPGSV,2,2,08,09,34,283,19,28,31,127,21,12,18,316,25,20,12,048,*75
$GPRMC,010549.000,A,3242.5101,N,09721.5005,W,0.27,185.13,120907,,,D*79
$GPGGA,010550.000,3242.5100,N,09721.5006,W,2,6,1.22,204.9,M,-23.5,M,0000,0000*60
$GPGSA,A,3,17,28,12,09,04,02,,,,,,,1.52,1.22,0.90*0C
$GPGSV,2,1,08,04,88,141,26,51,50,197,33,02,49,222,24,17,43,052,30*76
$GPGSV,2,2,08,09,34,283,19,28,31,127,21,12,18,316,25,20,12,048,*75
$GPRMC,010550.000,A,3242.5100,N,09721.5006,W,0.17,185.13,120907,,,D*70
$GPGGA,010551.000,3242.5100,N,09721.5006,W,2,6,1.22,204.9,M,-23.5,M,0000,0000*61
$GPGSA,A,3,17,28,12,09,04,02,,,,,,,1.52,1.22,0.90*0C
$GPGSV,2,1,08,04,88,141,26,51,50,197,33,02,49,222,25,17,43,052,31*76
$GPGSV,2,2,08,09,34,283,19,28,31,127,21,12,18,316,25,20,12,048,*75
$GPRMC,010551.000,A,3242.5100,N,09721.5006,W,0.26,214.04,120907,,,D*7E
$GPGGA,010552.000,3242.5100,N,09721.5007,W,2,6,1.22,204.9,M,-23.5,M,0000,0000*63
$GPGSA,A,3,17,28,12,09,04,02,,,,,,,1.52,1.22,0.90*0C
$GPGSV,2,1,08,04,88,141,26,51,50,197,33,02,49,222,25,17,43,052,31*76
$GPGSV,2,2,08,09,34,283,19,28,31,127,21,12,18,316,25,20,12,048,*75
$GPRMC,010552.000,A,3242.5100,N,09721.5007,W,0.19,214.04,120907,,,D*70
$GPGGA,010553.000,3242.5100,N,09721.5008,W,2,6,1.22,204.9,M,-23.5,M,0000,0000*6D
$GPGSA,A,3,17,28,12,09,04,02,,,,,,,1.52,1.22,0.90*0C
$GPGSV,2,1,08,04,88,141,26,51,50,197,33,02,49,222,25,17,43,052,31*76
$GPGSV,2,2,08,09,34,283,19,28,31,127,22,12,18,316,24,20,12,048,*77
$GPRMC,010553.000,A,3242.5100,N,09721.5008,W,0.33,241.52,120907,,,D*75
$GPGGA,010554.000,3242.5100,N,09721.5009,W,2,6,1.22,204.9,M,-23.5,M,0000,0000*6B
$GPGSA,A,3,17,28,12,09,04,02,,,,,,,1.52,1.22,0.90*0C
$GPGSV,2,1,07,04,88,141,26,51,50,197,34,02,49,222,25,17,43,052,31*7E
$GPGSV,2,2,07,09,34,283,20,28,31,127,22,12,18,316,24*4F
$GPRMC,010554.000,A,3242.5100,N,09721.5009,W,0.27,261.96,120907,,,D*7C
$GPGGA,010555.000,3242.5100,N,09721.5010,W,2,6,1.22,204.9,M,-23.5,M,0000,0000*62
$GPGSA,A,3,17,28,12,09,04,02,,,,,,,1.52,1.22,0.90*0C
$GPGSV,2,1,08,04,88,141,26,51,50,197,34,02,49,222,26,17,43,052,31*72
$GPGSV,2,2,08,09,34,283,19,28,31,127,22,12,18,316,24,20,12,048,*77
$GPRMC,010555.000,A,3242.5100,N,09721.5010,W,0.34,287.85,120907,,,D*7D
$GPGGA,010556.000,3242.5101,N,09721.5010,W,2,6,1.22,204.9,M,-23.5,M,0000,0000*60
$GPGSA,A,3,17,28,12,09,04,02,,,,,,,1.52,1.22,0.90*0C
$GPGSV,2,1,08,04,88,135,26,51,50,197,34,02,49,222,26,17,43,052,31*71
$GPGSV,2,2,08,09,34,283,19,28,31,127,22,12,18,316,24,20,12,048,*77
$GPRMC,010556.000,A,3242.5101,N,09721.5010,W,0.29,307.14,120907,,,D*72
$GPGGA,010557.000,3242.5102,N,09721.5010,W,2,6,1.26,204.9,M,-23.5,M,0000,0000*66
$GPGSA,A,3,17,28,12,09,04,02,,,,,,,2.45,1.26,2.10*07
$GPGSV,2,1,08,04,88,135,25,51,50,197,34,02,49,222,26,17,43,052,31*72
$GPGSV,2,2,08,09,34,283,19,28,31,127,22,12,18,316,24,20,12,048,*77
$GPRMC,010557.000,A,3242.5102,N,09721.5010,W,0.24,323.85,120907,,,D*73
$GPGGA,010558.000,3242.5102,N,09721.5010,W,2,6,1.26,205.0,M,-23.5,M,0000,0000*61
$GPGSA,A,3,17,28,12,09,04,02,,,,,,,2.45,1.26,2.10*07
$GPGSV,2,1,08,04,88,135,25,51,50,197,34,02,49,222,26,17,43,052,31*72
$GPGSV,2,2,08,09,34,283,20,28,31,127,22,12,18,316,24,20,12,048,*7D
$GPRMC,010558.000,A,3242.5102,N,09721.5010,W,0.18,323.85,120907,,,D*73
$GPGGA,010559.000,3242.5103,N,09721.5011,W,2,6,1.26,205.0,M,-23.5,M,0000,0000*60
$GPGSA,A,3,17,28,12,09,04,02,,,,,,,2.45,1.26,2.10*07
$GPGSV,2,1,08,04,88,135,25,51,50,197,34,02,49,222,26,17,43,052,31*72
$GPGSV,2,2,08,09,34,283,20,28,31,127,23,12,18,316,24,20,12,048,*7C
$GPRMC,010559.000,A,3242.5103,N,09721.5011,W,0.08,323.85,120907,,,D*73
$GPGGA,010600.000,3242.5103,N,09721.5010,W,2,6,1.22,205.0,M,-23.5,M,0000,0000*6A
$GPGSA,A,3,17,28,12,09,04,02,,,,,,,1.52,1.22,0.90*0C
$GPGSV,2,1,08,04,88,135,25,51,50,197,34,02,49,222,26,17,43,052,31*72
$GPGSV,2,2,08,09,34,283,20,28,31,127,23,12,18,316,24,20,12,048,*7C
$GPRMC,010600.000,A,3242.5103,N,09721.5010,W,0.11,323.85,120907,,,D*75
$GPGGA,010601.000,3242.5103,N,09721.5010,W,2,6,1.22,205.0,M,-23.5,M,0000,0000*6B
$GPGSA,A,3,17,28,12,09,04,02,,,,,,,1.52,1.22,0.90*0C
$GPGSV,2,1,08,04,88,135,25,51,50,197,34,02,49,222,26,17,43,052,31*72
$GPGSV,2,2,08,09,34,283,20,28,31,127,24,12,18,316,24,20,12,048,*7B
$GPRMC,010601.000,A,3242.5103,N,09721.5010,W,0.14,323.85,120907,,,D*71
$GPGGA,010602.000,3242.5103,N,09721.5011,W,2,6,1.22,205.0,M,-23.5,M,0000,0000*69
$GPGSA,A,3,17,28,12,09,04,02,,,,,,,1.52,1.22,0.90*0C
$GPGSV,2,1,08,04,88,135,25,51,50,197,34,02,49,222,26,17,43,052,31*72
$GPGSV,2,2,08,09,34,283,20,28,31,127,24,12,18,316,24,20,12,048,*7B
$GPRMC,010602.000,A,3242.5103,N,09721.5011,W,0.42,309.26,120907,,,D*71
$GPGGA,010603.000,3242.5104,N,09721.5012,W,2,6,1.22,205.1,M,-23.5,M,0000,0000*6D
$GPGSA,A,3,17,28,12,09,04,02,,,,,,,1.52,1.22,0.90*0C
$GPGSV,2,1,08,04,88,135,25,51,50,197,34,02,49,222,26,17,43,052,31*72
$GPGSV,2,2,08,09,34,283,20,28,31,127,24,12,18,316,24,20,12,048,*7B
$GPRMC,010603.000,A,3242.5104,N,09721.5012,W,0.36,307.87,120907,,,D*72
$GPGGA,010604.000,3242.5104,N,09721.5013,W,2,6,1.22,205.1,M,-23.5,M,0000,0000*6B
$GPGSA,A,3,17,28,12,09,04,02,,,,,,,1.52,1.22,0.90*0C
$GPGSV,2,1,08,04,88,135,25,51,50,197,33,02,49,222,26,17,43,052,31*75
$GPGSV,2,2,08,09,34,283,19,28,31,127,24,12,18,316,23,20,12,048,*76
$GPRMC,010604.000,A,3242.5104,N,09721.5013,W,0.28,300.02,120907,,,D*71
$GPGGA,010605.000,3242.5104,N,09721.5014,W,2,6,1.22,205.1,M,-23.5,M,0000,0000*6D
$GPGSA,A,3,17,28,12,09,04,02,,,,,,,1.52,1.22,0.90*0C
$GPGSV,2,1,08,04,88,135,25,51,50,197,34,02,49,222,26,17,43,052,30*73
$GPGSV,2,2,08,09,34,283,19,28,31,127,24,12,18,316,23,20,12,048,*76
$GPRMC,010605.000,A,3242.5104,N,09721.5014,W,0.16,300.02,120907,,,D*7A
$GPGGA,010606.000,3242.5105,N,09721.5015,W,2,6,1.22,205.1,M,-23.5,M,0000,0000*6E
$GPGSA,A,3,17,28,12,09,04,02,,,,,,,1.52,1.22,0.90*0C
$GPGSV,2,1,08,04,88,135,25,51,50,197,33,02,49,222,26,17,43,052,30*74
$GPGSV,2,2,08,09,34,283,19,28,31,127,24,12,18,316,24,20,12,048,*71
$GPRMC,010606.000,A,3242.5105,N,09721.5015,W,0.30,317.74,120907,,,D*7A
$GPGGA,010607.000,3242.5105,N,09721.5015,W,2,6,1.26,205.1,M,-23.5,M,0000,0000*6B
$GPGSA,A,3,17,28,12,09,04,02,,,,,,,2.45,1.26,2.10*07
$GPGSV,2,1,08,04,88,135,25,51,50,197,34,02,49,222,27,17,43,052,30*72
$GPGSV,2,2,08,09,34,283,19,28,31,127,24,12,18,316,24,20,12,048,*71
$GPRMC,010607.000,A,3242.5105,N,09721.5015,W,0.32,330.95,120907,,,D*73
$GPGGA,010608.000,3242.5106,N,09721.5015,W,2,6,1.26,205.1,M,-23.5,M,0000,0000*67
$GPGSA,A,3,17,28,12,09,04,02,,,,,,,2.45,1.26,2.09*0F
$GPGSV,2,1,07,04,88,135,25,51,50,197,33,02,49,222,27,17,43,052,30*7A
$GPGSV,2,2,07,09,34,283,18,28,31,127,23,12,18,316,25*44
$GPRMC,010608.000,A,3242.5106,N,09721.5015,W,0.26,327.93,120907,,,D*7A
$GPGGA,010609.000,3242.5107,N,09721.5015,W,2,6,1.22,205.2,M,-23.5,M,0000,0000*60
$GPGSA,A,3,17,28,12,09,04,02,,,,,,,1.52,1.22,0.90*0C
$GPGSV,2,1,08,04,88,135,25,51,50,197,33,02,49,222,27,17,43,053,30*74
$GPGSV,2,2,08,09,34,283,18,28,31,127,23,12,18,316,24,20,12,048,*77
$GPRMC,010609.000,A,3242.5107,N,09721.5015,W,0.24,316.40,120907,,,D*74
$GPGGA,010610.000,3242.5107,N,09721.5016,W,2,6,1.22,205.2,M,-23.5,M,0000,0000*6B
$GPGSA,A,3,17,28,12,09,04,02,,,,,,,1.52,1.22,0.90*0C
$GPGSV,2,1,08,04,88,135,24,51,50,197,33,02,49,222,27,17,43,053,29*7D
$GPGSV,2,2,08,09,34,283,19,28,31,127,23,12,18,316,24,20,12,048,*76
$GPRMC,010610.000,A,3242.5107,N,09721.5016,W,0.49,295.94,120907,,,D*77
$GPGGA,010611.000,3242.5107,N,09721.5018,W,2,6,1.22,205.2,M,-23.5,M,0000,0000*64
$GPGSA,A,3,17,28,12,09,04,02,,,,,,,1.52,1.22,0.90*0C
$GPGSV,2,1,08,04,88,135,24,51,50,197,33,02,49,222,28,17,43,053,29*72
$GPGSV,2,2,08,09,34,283,19,28,31,127,23,12,18,316,24,20,12,048,*76
$GPRMC,010611.000,A,3242.5107,N,09721.5018,W,0.47,288.86,120907,,,D*79
$GPGGA,010612.000,3242.5107,N,09721.5020,W,2,6,1.22,205.2,M,-23.5,M,0000,0000*6C
$GPGSA,A,3,17,28,12,09,04,02,,,,,,,1.52,1.22,0.90*0C
$GPGSV,2,1,08,04,88,135,24,51,50,197,33,02,49,222,27,17,43,053,29*7D
$GPGSV,2,2,08,09,34,283,19,28,31,127,23,12,18,316,24,20,12,047,*79
$GPRMC,010612.000,A,3242.5107,N,09721.5020,W,0.49,284.41,120907,,,D*78
$GPGGA,010613.000,3242.5107,N,09721.5021,W,2,6,1.22,205.2,M,-23.5,M,0000,0000*6C
$GPGSA,A,3,17,28,12,09,04,02,,,,,,,1.52,1.22,0.90*0C
$GPGSV,2,1,08,04,88,135,24,51,50,197,33,02,49,222,27,17,43,053,29*7D
$GPGSV,2,2,08,09,34,283,19,28,31,127,23,12,18,316,23,20,12,047,*7E
$GPRMC,010613.000,A,3242.5107,N,09721.5021,W,0.41,280.57,120907,,,D*73
$GPGGA,010614.000,3242.5107,N,09721.5023,W,2,6,1.22,205.3,M,-23.5,M,0000,0000*68
$GPGSA,A,3,17,28,12,09,04,02,,,,,,,1.52,1.22,0.90*0C
$GPGSV,2,1,08,04,88,135,24,51,50,197,33,02,49,222,27,17,43,053,29*7D
$GPGSV,2,2,08,09,34,283,19,28,31,127,22,12,18,316,23,20,12,047,*7F
$GPRMC,010614.000,A,3242.5107,N,09721.5023,W,0.17,280.57,120907,,,D*75
$GPGGA,010615.000,3242.5107,N,09721.5023,W,2,6,1.22,205.3,M,-23.5,M,0000,0000*69
$GPGSA,A,3,17,28,12,09,04,02,,,,,,,1.52,1.22,0.90*0C
$GPGSV,2,1,08,04,88,135,24,51,50,197,33,02,49,222,28,17,43,053,29*72
$GPGSV,2,2,08,09,34,283,19,28,31,127,22,12,18,316,23,20,12,047,*7F
$GPRMC,010615.000,A,3242.5107,N,09721.5023,W,0.19,266.58,120907,,,D*7D
$GPGGA,010616.000,3242.5107,N,09721.5023,W,2,6,1.22,205.3,M,-23.5,M,0000,0000*6A
$GPGSA,A,3,17,28,12,09,04,02,,,,,,,1.52,1.22,0.90*0C
$GPGSV,2,1,07,04,88,135,24,51,50,197,34,02,49,222,28,17,43,053,29*7A
$GPGSV,2,2,07,09,34,283,19,28,31,127,22,12,18,316,23*42
$GPRMC,010616.000,A,3242.5107,N,09721.5023,W,0.13,266.58,120907,,,D*74
$GPGGA,010617.000,3242.5106,N,09721.5024,W,2,6,1.22,205.3,M,-23.5,M,0000,0000*6D
$GPGSA,A,3,17,28,12,09,04,02,,,,,,,1.52,1.22,0.90*0C
$GPGSV,2,1,08,04,88,135,23,51,50,197,34,02,49,222,28,17,43,053,28*73
$GPGSV,2,2,08,09,34,283,19,28,31,127,21,12,18,316,23,20,12,047,*7C
$GPRMC,010617.000,A,3242.5106,N,09721.5024,W,0.31,261.79,120907,,,D*77
$GPGGA,010618.000,3242.5106,N,09721.5025,W,2,6,1.22,205.3,M,-23.5,M,0000,0000*63
$GPGSA,A,3,17,28,12,09,04,02,,,,,,,1.52,1.22,0.90*0C
$GPGSV,2,1,08,04,88,135,23,51,50,197,34,02,49,222,28,17,43,053,28*73
$GPGSV,2,2,08,09,34,283,20,28,31,127,21,12,18,316,23,20,12,047,*76
$GPRMC,010618.000,A,3242.5106,N,09721.5025,W,0.30,249.83,120907,,,D*77
$GPGGA,010619.000,3242.5106,N,09721.5025,W,2,6,1.22,205.3,M,-23.5,M,0000,0000*62
$GPGSA,A,3,17,28,12,09,04,02,,,,,,,1.52,1.22,0.90*0C
$GPGSV,2,1,08,04,88,135,22,51,50,197,34,02,49,222,28,17,43,053,28*72
$GPGSV,2,2,08,09,34,283,20,28,31,127,21,12,18,316,23,20,12,047,*76
$GPRMC,010619.000,A,3242.5106,N,09721.5025,W,0.33,235.17,120907,,,D*73
$GPGGA,010620.000,3242.5105,N,09721.5026,W,2,6,1.22,205.3,M,-23.5,M,0000,0000*68
$GPGSA,A,3,17,28,12,09,04,02,,,,,,,1.52,1.22,0.90*0C
$GPGSV,2,1,08,04,88,135,22,51,50,197,33,02,49,222,28,17,43,053,28*75
$GPGSV,2,2,08,09,34,283,21,28,31,127,21,12,18,316,23,20,12,047,*77
$GPRMC,010620.000,A,3242.5105,N,09721.5026,W,0.34,226.50,120907,,,D*7F
$GPGGA,010621.000,3242.5104,N,09721.5026,W,2,6,1.22,205.3,M,-23.5,M,0000,0000*68
$GPGSA,A,3,17,28,12,09,04,02,,,,,,,1.52,1.22,0.90*0C
$GPGSV,2,1,08,04,88,135,22,51,50,197,33,02,49,222,28,17,43,053,28*75
$GPGSV,2,2,08,09,34,283,21,28,31,127,20,12,18,316,24,20,12,047,*71
$GPRMC,010621.000,A,3242.5104,N,09721.5026,W,0.20,220.05,120907,,,D*7C
$GPGGA,010622.000,3242.5103,N,09721.5026,W,2,6,1.22,205.4,M,-23.5,M,0000,0000*6B
$GPGSA,A,3,17,28,12,09,04,02,,,,,,,1.52,1.22,0.90*0C
$GPGSV,2,1,08,04,88,135,22,51,50,197,33,02,49,222,28,17,43,053,28*75
$GPGSV,2,2,08,09,34,283,21,28,31,127,20,12,18,316,24,20,12,047,*71
$GPRMC,010622.000,A,3242.5103,N,09721.5026,W,0.31,239.56,120907,,,D*76
$GPGGA,010623.000,3242.5104,N,09721.5027,W,2,6,1.22,205.4,M,-23.5,M,0000,0000*6C
$GPGSA,A,3,17,28,12,09,04,02,,,,,,,1.52,1.22,0.90*0C
$GPGSV,2,1,08,04,88,135,22,51,50,197,33,02,49,222,28,17,43,053,28*75
$GPGSV,2,2,08,09,34,283,21,28,31,127,19,12,18,316,24,20,12,047,*7B
$GPRMC,010623.000,A,3242.5104,N,09721.5027,W,0.49,264.24,120907,,,D*73
$GPGGA,010624.000,3242.5104,N,09721.5029,W,2,6,1.22,205.4,M,-23.5,M,0000,0000*65
$GPGSA,A,3,17,28,12,09,04,02,,,,,,,1.52,1.22,0.90*0C
$GPGSV,2,1,08,04,88,135,22,51,50,197,33,02,49,222,28,17,43,053,28*75
$GPGSV,2,2,08,09,34,283,21,28,31,127,19,12,18,316,24,20,12,047,*7B
$GPRMC,010624.000,A,3242.5104,N,09721.5029,W,0.50,280.58,120907,,,D*73
$GPGGA,010625.000,3242.5105,N,09721.5030,W,2,6,1.22,205.4,M,-23.5,M,0000,0000*6D
$GPGSA,A,3,17,28,12,09,04,02,,,,,,,1.52,1.22,0.90*0C
$GPGSV,2,1,08,04,88,135,22,51,50,197,34,02,49,222,28,17,43,053,28*72
$GPGSV,2,2,08,09,34,283,21,28,31,127,19,12,18,316,24,20,12,047,*7B
$GPRMC,010625.000,A,3242.5105,N,09721.5030,W,0.26,292.26,120907,,,D*70
$GPGGA,010626.000,3242.5105,N,09721.5030,W,2,6,1.22,205.4,M,-23.5,M,0000,0000*6E
$GPGSA,A,3,17,28,12,09,04,02,,,,,,,1.52,1.22,0.90*0C
$GPGSV,2,1,08,04,88,135,23,51,50,197,34,02,49,222,28,17,43,053,28*73
$GPGSV,2,2,08,09,34,283,21,28,31,127,19,12,18,316,24,20,12,047,*7B
$GPRMC,010626.000,A,3242.5105,N,09721.5030,W,0.02,292.26,120907,,,D*75
$GPGGA,010627.000,3242.5105,N,09721.5030,W,2,6,1.22,205.4,M,-23.5,M,0000,0000*6F
$GPGSA,A,3,17,28,12,09,04,02,,,,,,,1.52,1.22,0.90*0C
$GPGSV,2,1,08,04,88,135,23,51,50,197,34,02,49,222,28,17,43,053,28*73
$GPGSV,2,2,08,09,34,283,20,28,31,127,19,12,18,316,24,20,12,047,*7A
$GPRMC,010627.000,A,3242.5105,N,09721.5030,W,0.13,292.26,120907,,,D*74
$GPGGA,010628.000,3242.5106,N,09721.5030,W,2,6,1.22,205.4,M,-23.5,M,0000,0000*63
$GPGSA,A,3,17,28,12,09,04,02,,,,,,,1.52,1.22,0.90*0C
$GPGSV,2,1,08,04,88,127,23,51,50,197,34,02,49,222,28,17,43,053,28*70
$GPGSV,2,2,08,09,34,283,20,28,31,127,19,12,18,316,24,20,12,047,*7A
$GPRMC,010628.000,A,3242.5106,N,09721.5030,W,0.09,292.26,120907,,,D*73
$GPGGA,010629.000,3242.5106,N,09721.5030,W,2,6,1.22,205.4,M,-23.5,M,0000,0000*62
$GPGSA,A,3,17,28,12,09,04,02,,,,,,,1.52,1.22,0.90*0C
$GPGSV,2,1,08,04,88,127,23,51,50,197,33,02,49,222,28,17,43,053,28*77
$GPGSV,2,2,08,09,34,283,20,28,31,127,18,12,18,316,24,20,12,047,*7B
$GPRMC,010629.000,A,3242.5106,N,09721.5030,W,0.26,312.05,120907,,,D*77
$GPGGA,010630.000,3242.5105,N,09721.5029,W,2,6,1.22,205.4,M,-23.5,M,0000,0000*61
$GPGSA,A,3,17,28,12,09,04,02,,,,,,,1.52,1.22,0.90*0C
$GPGSV,2,1,08,04,88,127,23,51,50,197,34,02,49,222,28,17,43,053,28*70
$GPGSV,2,2,08,09,34,283,21,28,31,127,19,12,18,316,24,20,12,047,*7B
$GPRMC,010630.000,A,3242.5105,N,09721.5029,W,0.16,312.05,120907,,,D*77
$GPGGA,010631.000,3242.5104,N,09721.5029,W,2,6,1.22,205.4,M,-23.5,M,0000,0000*61
$GPGSA,A,3,17,28,12,09,04,02,,,,,,,1.52,1.22,0.90*0C
$GPGSV,2,1,08,04,88,127,23,51,50,197,34,02,49,222,28,17,43,053,28*70
$GPGSV,2,2,08,09,34,283,22,28,31,127,19,12,18,316,24,20,12,047,*78
$GPRMC,010631.000,A,3242.5104,N,09721.5029,W,0.22,207.40,120907,,,D*74
$GPGGA,010632.000,3242.5104,N,09721.5030,W,2,6,1.22,205.4,M,-23.5,M,0000,0000*6A
$GPGSA,A,3,17,28,12,09,04,02,,,,,,,1.52,1.22,0.90*0C
$GPGSV,2,1,08,04,88,127,23,51,50,197,34,02,49,222,28,17,43,053,28*70
$GPGSV,2,2,08,09,34,283,22,28,31,127,19,12,18,316,25,20,12,047,*79
$GPRMC,010632.000,A,3242.5104,N,09721.5030,W,0.32,201.33,120907,,,D*7C
$GPGGA,010633.000,3242.5103,N,09721.5030,W,2,6,1.22,205.4,M,-23.5,M,0000,0000*6C
$GPGSA,A,3,17,28,12,09,04,02,,,,,,,1.52,1.22,0.90*0C
$GPGSV,2,1,07,04,88,127,23,51,50,197,34,02,49,222,28,17,43,053,28*7F
$GPGSV,2,2,07,09,34,282,22,28,31,127,19,12,18,316,24*44
$GPRMC,010633.000,A,3242.5103,N,09721.5030,W,0.51,192.07,120907,,,D*71
$GPGGA,010634.000,3242.5101,N,09721.5030,W,2,6,1.22,205.4,M,-23.5,M,0000,0000*69
$GPGSA,A,3,17,28,12,09,04,02,,,,,,,1.52,1.22,0.90*0C
$GPGSV,2,1,08,04,88,127,23,51,50,197,34,02,49,222,28,17,43,053,28*70
$GPGSV,2,2,08,09,34,282,22,28,31,127,19,12,18,316,24,20,12,047,*79
$GPRMC,010634.000,A,3242.5101,N,09721.5030,W,0.55,189.63,120907,,,D*78
$GPGGA,010635.000,3242.5100,N,09721.5030,W,2,6,1.22,205.4,M,-23.5,M,0000,0000*69
$GPGSA,A,3,17,28,12,09,04,02,,,,,,,1.52,1.22,0.90*0C
$GPGSV,2,1,08,04,88,127,23,51,50,197,33,02,49,222,27,17,43,053,28*78
$GPGSV,2,2,08,09,34,282,23,28,31,127,20,12,18,316,24,20,12,047,*72
$GPRMC,010635.000,A,3242.5100,N,09721.5030,W,0.59,190.98,120907,,,D*78
$GPGGA,010636.000,3242.5095,N,09721.5035,W,2,6,1.22,205.6,M,-23.5,M,0000,0000*60
$GPGSA,A,3,17,28,12,09,04,02,,,,,,,1.52,1.22,0.90*0C
$GPGSV,2,1,08,04,88,127,23,51,50,197,33,02,49,222,27,17,43,053,28*78
$GPGSV,2,2,08,09,34,282,24,28,31,127,21,12,18,316,24,20,12,047,*74
$GPRMC,010636.000,A,3242.5095,N,09721.5035,W,0.73,197.83,120907,,,D*76
$GPGGA,010637.000,3242.5094,N,09721.5035,W,2,6,1.22,205.9,M,-23.5,M,0000,0000*6F
$GPGSA,A,3,17,28,12,09,04,02,,,,,,,1.52,1.22,0.90*0C
$GPGSV,2,1,08,04,88,127,23,51,50,197,34,02,49,222,27,17,43,053,28*7F
$GPGSV,2,2,08,09,34,282,24,28,31,127,21,12,18,316,24,20,12,047,*74
$GPRMC,010637.000,A,3242.5094,N,09721.5035,W,0.74,201.40,120907,,,D*72
$GPGGA,010638.000,3242.5093,N,09721.5035,W,2,6,1.22,206.0,M,-23.5,M,0000,0000*6D
$GPGSA,A,3,17,28,12,09,04,02,,,,,,,1.52,1.22,0.90*0C
$GPGSV,2,1,08,04,88,127,23,51,50,197,34,02,49,222,27,17,43,053,28*7F
$GPGSV,2,2,08,09,34,282,24,28,31,127,21,12,18,316,24,20,12,047,*74
$GPRMC,010638.000,A,3242.5093,N,09721.5035,W,0.68,199.65,120907,,,D*72
$GPGGA,010639.000,3242.5090,N,09721.5034,W,2,6,1.22,206.2,M,-23.5,M,0000,0000*6C
$GPGSA,A,3,17,28,12,09,04,02,,,,,,,1.52,1.22,0.90*0C
$GPGSV,2,1,08,04,88,127,23,51,50,197,34,02,49,222,27,17,43,053,28*7F
$GPGSV,2,2,08,09,34,282,24,28,31,127,20,12,18,316,23,20,12,047,*72
$GPRMC,010639.000,A,3242.5090,N,09721.5034,W,0.67,197.48,120907,,,D*7F
$GPGGA,010640.000,3242.5087,N,09721.5036,W,2,6,1.22,206.3,M,-23.5,M,0000,0000*67
$GPGSA,A,3,17,28,12,09,04,02,,,,,,,1.52,1.22,0.90*0C
$GPGSV,2,1,08,04,88,127,23,51,50,197,34,02,49,222,27,17,43,053,28*7F
$GPGSV,2,2,08,09,34,282,24,28,31,127,20,12,18,316,23,20,12,047,*72
$GPRMC,010640.000,A,3242.5087,N,09721.5036,W,0.59,197.09,120907,,,D*7D
$GPGGA,010641.000,3242.5088,N,09721.5038,W,2,6,1.22,206.5,M,-23.5,M,0000,0000*61
$GPGSA,A,3,17,28,12,09,04,02,,,,,,,1.52,1.22,0.90*0C
$GPGSV,2,1,07,04,88,127,23,51,50,197,34,02,49,222,28,17,43,053,28*7F
$GPGSV,2,2,07,09,34,282,25,28,31,127,20,12,18,316,23*4E
$GPRMC,010641.000,A,3242.5088,N,09721.5038,W,0.37,198.61,120907,,,D*74
$GPGGA,010642.000,3242.5085,N,09721.5038,W,2,6,1.22,206.7,M,-23.5,M,0000,0000*6D
$GPGSA,A,3,17,28,12,09,04,02,,,,,,,1.52,1.22,0.90*0C
$GPGSV,2,1,08,04,88,127,23,51,50,197,34,02,49,222,28,17,43,053,28*70
$GPGSV,2,2,08,09,34,282,25,28,31,127,20,12,18,316,23,20,12,047,*73
$GPRMC,010642.000,A,3242.5085,N,09721.5038,W,0.50,197.35,120907,,,D*75
$GPGGA,010643.000,3242.5081,N,09721.5040,W,2,6,1.22,206.9,M,-23.5,M,0000,0000*69
$GPGSA,A,3,17,28,12,09,04,02,,,,,,,1.52,1.22,0.90*0C
$GPGSV,2,1,08,04,88,127,24,51,50,197,34,02,49,222,28,17,43,053,28*77
$GPGSV,2,2,08,09,34,282,25,28,31,127,20,12,18,316,23,20,12,047,*73
$GPRMC,010643.000,A,3242.5081,N,09721.5040,W,0.58,195.64,120907,,,D*71
$GPGGA,010644.000,3242.5078,N,09721.5038,W,2,6,1.22,207.2,M,-23.5,M,0000,0000*6D
$GPGSA,A,3,17,28,12,09,04,02,,,,,,,1.52,1.22,0.90*0C
$GPGSV,2,1,08,04,88,127,25,51,50,197,34,02,49,222,28,17,43,053,28*76
$GPGSV,2,2,08,09,34,282,25,28,31,127,20,12,18,316,23,20,12,047,*73
$GPRMC,010644.000,A,3242.5078,N,09721.5038,W,0.62,186.75,120907,,,D*74
$GPGGA,010645.000,3242.5075,N,09721.5034,W,2,6,1.22,207.4,M,-23.5,M,0000,0000*6B
$GPGSA,A,3,17,28,12,09,04,02,,,,,,,1.52,1.22,0.90*0C
$GPGSV,2,1,08,04,88,127,25,51,50,197,34,02,49,222,28,17,43,053,28*76
$GPGSV,2,2,08,09,34,282,26,28,31,127,20,12,18,316,23,20,12,047,*70
$GPRMC,010645.000,A,3242.5075,N,09721.5034,W,0.63,178.96,120907,,,D*79
$GPGGA,010646.000,3242.5075,N,09721.5033,W,2,6,1.22,207.6,M,-23.5,M,0000,0000*6D
$GPGSA,A,3,17,28,12,09,04,02,,,,,,,1.52,1.22,0.90*0C
$GPGSV,2,1,08,04,88,127,25,51,50,197,34,02,49,222,28,17,43,053,28*76
$GPGSV,2,2,08,09,34,282,26,28,31,127,20,12,18,316,23,20,12,047,*70
$GPRMC,010646.000,A,3242.5075,N,09721.5033,W,0.52,178.88,120907,,,D*70
$GPGGA,010647.000,3242.5074,N,09721.5031,W,2,6,1.22,207.8,M,-23.5,M,0000,0000*61
$GPGSA,A,3,17,28,12,09,04,02,,,,,,,1.52,1.22,0.90*0C
$GPGSV,2,1,08,04,88,127,25,51,50,197,33,02,49,222,28,17,43,053,28*71
$GPGSV,2,2,08,09,34,282,26,28,31,127,20,12,18,316,23,20,12,047,*70
$GPRMC,010647.000,A,3242.5074,N,09721.5031,W,0.49,179.18,120907,,,D*70
$GPGGA,010648.000,3242.5072,N,09721.5031,W,2,6,1.22,207.9,M,-23.5,M,0000,0000*69
$GPGSA,A,3,17,28,12,09,04,02,,,,,,,1.52,1.22,0.90*0C
$GPGSV,2,1,08,04,88,127,25,51,50,197,33,02,49,222,28,17,43,053,28*71
$GPGSV,2,2,08,09,34,282,26,28,31,127,20,12,18,316,23,20,12,047,*70
$GPRMC,010648.000,A,3242.5072,N,09721.5031,W,0.41,183.29,120907,,,D*76
$GPGGA,010649.000,3242.5070,N,09721.5030,W,2,6,1.22,208.1,M,-23.5,M,0000,0000*6C
$GPGSA,A,3,17,28,12,09,04,02,,,,,,,1.52,1.22,0.90*0C
$GPGSV,2,1,08,04,88,127,25,51,50,197,33,02,49,222,28,17,43,053,28*71
$GPGSV,2,2,08,09,34,282,26,28,31,127,20,12,18,316,23,20,12,047,*70
$GPRMC,010649.000,A,3242.5070,N,09721.5030,W,0.44,183.01,120907,,,D*7B
$GPGGA,010650.000,3242.5068,N,09721.5030,W,2,6,1.22,208.1,M,-23.5,M,0000,0000*6D
$GPGSA,A,3,17,28,12,09,04,02,,,,,,,1.52,1.22,0.90*0C
$GPGSV,2,1,08,04,88,127,26,51,50,197,33,02,49,222,28,17,43,053,28*72
$GPGSV,2,2,08,09,34,282,26,28,31,127,20,12,18,316,22,20,12,047,*71
$GPRMC,010650.000,A,3242.5068,N,09721.5030,W,0.48,180.07,120907,,,D*73
$GPGGA,010651.000,3242.5067,N,09721.5029,W,2,6,1.22,208.1,M,-23.5,M,0000,0000*6B
$GPGSA,A,3,17,28,12,09,04,02,,,,,,,1.52,1.22,0.90*0C
$GPGSV,2,1,07,04,88,127,26,51,50,197,32,02,49,222,28,17,43,053,27*73
$GPGSV,2,2,07,09,34,282,26,28,31,127,19,12,18,316,22*46
$GPRMC,010651.000,A,3242.5067,N,09721.5029,W,0.39,178.39,120907,,,D*79
$GPGGA,010652.000,3242.5066,N,09721.5029,W,2,6,1.22,208.1,M,-23.5,M,0000,0000*69
$GPGSA,A,3,17,28,12,09,04,02,,,,,,,1.52,1.22,0.90*0C
$GPGSV,2,1,08,04,88,127,26,51,50,197,32,02,49,222,28,17,43,053,27*7C
$GPGSV,2,2,08,09,34,282,26,28,31,127,18,12,18,316,22,20,12,047,*7A
$GPRMC,010652.000,A,3242.5066,N,09721.5029,W,0.25,173.23,120907,,,D*76
$GPGGA,010653.000,3242.5065,N,09721.5029,W,2,6,1.22,208.1,M,-23.5,M,0000,0000*6B
$GPGSA,A,3,17,28,12,09,04,02,,,,,,,1.52,1.22,0.90*0C
$GPGSV,2,1,07,04,88,127,26,51,50,197,33,02,49,222,28,17,43,053,27*72
$GPGSV,2,2,07,09,34,282,26,28,31,127,18,12,18,316,22*47
$GPRMC,010653.000,A,3242.5065,N,09721.5029,W,0.35,163.68,120907,,,D*7B
$GPGGA,010654.000,3242.5065,N,09721.5028,W,2,6,1.22,208.1,M,-23.5,M,0000,0000*6D
$GPGSA,A,3,17,28,12,09,04,02,,,,,,,1.52,1.22,0.90*0C
$GPGSV,2,1,08,04,88,127,26,51,50,197,33,02,49,222,28,17,43,053,27*7D
$GPGSV,2,2,08,09,34,282,27,28,31,127,18,12,18,316,22,20,12,047,*7B
$GPRMC,010654.000,A,3242.5065,N,09721.5028,W,0.43,152.78,120907,,,D*7F
$GPGGA,010655.000,3242.5064,N,09721.5026,W,2,6,1.22,208.1,M,-23.5,M,0000,0000*63
$GPGSA,A,3,17,28,12,09,04,02,,,,,,,1.52,1.22,0.90*0C
$GPGSV,2,1,08,04,88,127,26,51,50,197,33,02,49,222,28,17,43,053,27*7D
$GPGSV,2,2,08,09,34,282,27,28,31,127,18,12,18,316,22,20,12,047,*7B
$GPRMC,010655.000,A,3242.5064,N,09721.5026,W,0.66,135.19,120907,,,D*70
$GPGGA,010656.000,3242.5062,N,09721.5024,W,2,6,1.22,208.1,M,-23.5,M,0000,0000*64
$GPGSA,A,3,17,28,12,09,04,02,,,,,,,1.52,1.22,0.90*0C
$GPGSV,2,1,08,04,88,127,26,51,50,197,33,02,49,222,28,17,43,053,27*7D
$GPGSV,2,2,08,09,34,282,27,28,31,127,18,12,18,316,23,20,12,047,*7A
$GPRMC,010656.000,A,3242.5062,N,09721.5024,W,0.49,131.73,120907,,,D*72
$GPGGA,010657.000,3242.5060,N,09721.5021,W,2,6,1.22,208.1,M,-23.5,M,0000,0000*62
$GPGSA,A,3,17,28,12,09,04,02,,,,,,,1.52,1.22,0.90*0C
$GPGSV,2,1,08,04,88,127,26,51,50,197,33,02,49,222,28,17,43,053,26*7C
$GPGSV,2,2,08,09,34,282,27,28,31,127,18,12,18,316,22,20,12,047,*7B
$GPRMC,010657.000,A,3242.5060,N,09721.5021,W,0.52,131.29,120907,,,D*71
$GPGGA,010658.000,3242.5060,N,09721.5022,W,2,6,1.22,208.2,M,-23.5,M,0000,0000*6D
$GPGSA,A,3,17,28,12,09,04,02,,,,,,,1.52,1.22,0.90*0C
$GPGSV,2,1,08,04,88,127,26,51,50,197,33,02,49,222,28,17,43,053,26*7C
$GPGSV,2,2,08,09,34,282,27,28,31,127,18,12,18,316,22,20,12,047,*7B
$GPRMC,010658.000,A,3242.5060,N,09721.5022,W,0.46,129.00,120907,,,D*7A
$GPGGA,010659.000,3242.5062,N,09721.5021,W,2,6,1.22,208.2,M,-23.5,M,0000,0000*6D
$GPGSA,A,3,17,28,12,09,04,02,,,,,,,1.52,1.22,0.90*0C
$GPGSV,2,1,08,04,88,127,25,51,50,197,33,02,49,222,28,17,43,053,26*7F
$GPGSV,2,2,08,09,34,282,27,28,31,127,18,12,18,316,23,20,12,047,*7A
$GPRMC,010659.000,A,3242.5062,N,09721.5021,W,0.41,118.76,120907,,,D*7E
$GPGGA,010700.000,3242.5062,N,09721.5019,W,2,6,1.22,208.2,M,-23.5,M,0000,0000*6B
$GPGSA,A,3,17,28,12,09,04,02,,,,,,,1.52,1.22,0.90*0C
$GPGSV,2,1,08,04,88,119,25,51,50,197,33,02,49,222,28,17,43,053,25*71
$GPGSV,2,2,08,09,34,282,27,28,31,127,17,12,18,316,23,20,12,047,*75
$GPRMC,010700.000,A,3242.5062,N,09721.5019,W,0.21,117.55,120907,,,D*70
$GPGGA,010701.000,3242.5062,N,09721.5019,W,2,6,1.22,208.3,M,-23.5,M,0000,0000*6B
$GPGSA,A,3,17,28,12,09,04,02,,,,,,,1.52,1.22,0.90*0C
$GPGSV,2,1,08,04,88,119,25,51,50,197,33,02,49,222,28,17,43,053,24*70
$GPGSV,2,2,08,09,34,282,27,28,31,127,17,12,18,316,23,20,12,047,*75
$GPRMC,010701.000,A,3242.5062,N,09721.5019,W,0.23,116.93,120907,,,D*78
$GPGGA,010702.000,3242.5062,N,09721.5018,W,2,6,1.22,208.3,M,-23.5,M,0000,0000*69
$GPGSA,A,3,17,28,12,09,04,02,,,,,,,1.52,1.22,0.90*0C
$GPGSV,2,1,08,04,88,119,25,51,50,197,33,02,49,222,27,17,43,053,24*7F
$GPGSV,2,2,08,09,34,282,27,28,31,127,16,12,18,316,23,20,12,047,*74
$GPRMC,010702.000,A,3242.5062,N,09721.5018,W,0.37,112.92,120907,,,D*7A
$GPGGA,010703.000,3242.5061,N,09721.5017,W,2,6,1.22,208.3,M,-23.5,M,0000,0000*64
$GPGSA,A,3,17,28,12,09,04,02,,,,,,,1.52,1.22,0.90*0C
$GPGSV,2,1,08,04,88,119,25,51,50,197,33,02,49,222,27,17,43,053,23*78
$GPGSV,2,2,08,09,34,282,27,28,31,127,15,12,18,316,22,20,12,047,*76
$GPRMC,010703.000,A,3242.5061,N,09721.5017,W,0.43,110.17,120907,,,D*7B
$GPGGA,010704.000,3242.5061,N,09721.5015,W,2,6,1.22,208.3,M,-23.5,M,0000,0000*61
$GPGSA,A,3,17,28,12,09,04,02,,,,,,,1.52,1.22,0.90*0C
$GPGSV,2,1,08,04,88,119,24,51,50,197,33,02,49,222,27,17,43,053,22*78
$GPGSV,2,2,08,09,34,282,27,28,31,127,16,12,18,316,21,20,12,047,*76
$GPRMC,010704.000,A,3242.5061,N,09721.5015,W,0.49,113.48,120907,,,D*7D
$GPGGA,010705.000,3242.5060,N,09721.5014,W,2,6,1.22,208.3,M,-23.5,M,0000,0000*60
$GPGSA,A,3,17,28,12,09,04,02,,,,,,,1.52,1.22,0.90*0C
$GPGSV,2,1,08,04,88,119,23,51,50,197,33,02,49,222,26,17,43,053,22*7E
$GPGSV,2,2,08,09,34,282,28,28,31,127,16,12,18,316,21,20,12,047,*79
$GPRMC,010705.000,A,3242.5060,N,09721.5014,W,0.63,117.94,120907,,,D*71
$GPGGA,010706.000,3242.5055,N,09721.5010,W,2,6,1.22,208.3,M,-23.5,M,0000,0000*61
$GPGSA,A,3,17,28,12,09,04,02,,,,,,,1.52,1.22,0.90*0C
$GPGSV,2,1,08,04,88,119,23,51,50,197,33,02,49,222,26,17,43,053,21*7D
$GPGSV,2,2,08,09,34,282,28,28,31,127,16,12,18,316,21,20,12,047,*79
$GPRMC,010706.000,A,3242.5055,N,09721.5010,W,0.77,118.10,120907,,,D*76
$GPGGA,010707.000,3242.5052,N,09721.5006,W,2,6,1.22,208.3,M,-23.5,M,0000,0000*60
$GPGSA,A,3,17,28,12,09,04,02,,,,,,,1.52,1.22,0.90*0C
$GPGSV,2,1,08,04,88,119,23,51,50,197,34,02,49,222,26,17,43,053,21*7A
$GPGSV,2,2,08,09,34,282,28,28,31,127,16,12,18,316,20,20,12,047,*78
$GPRMC,010707.000,A,3242.5052,N,09721.5006,W,0.80,120.67,120907,,,D*74
$GPGGA,010708.000,3242.5048,N,09721.5001,W,2,6,1.22,208.4,M,-23.5,M,0000,0000*64
$GPGSA,A,3,17,28,12,09,04,02,,,,,,,1.52,1.22,0.90*0C
$GPGSV,2,1,08,04,88,119,23,51,50,197,34,02,49,222,26,17,43,053,20*7B
$GPGSV,2,2,08,09,34,282,28,28,31,127,16,12,19,316,20,20,12,047,*79
$GPRMC,010708.000,A,3242.5048,N,09721.5001,W,1.02,125.06,120907,,,D*7E
$GPGGA,010709.000,3242.5043,N,09721.4996,W,2,6,1.22,208.4,M,-23.5,M,0000,0000*68
$GPGSA,A,3,17,28,12,09,04,02,,,,,,,1.52,1.22,0.90*0C
$GPGSV,2,1,08,04,88,119,23,51,50,197,34,02,49,222,26,17,43,053,20*7B
$GPGSV,2,2,08,09,34,282,28,28,31,127,16,12,19,316,19,20,12,047,*73
$GPRMC,010709.000,A,3242.5043,N,09721.4996,W,1.04,130.76,120907,,,D*77
$GPGGA,010710.000,3242.5041,N,09721.4994,W,2,6,1.22,208.4,M,-23.5,M,0000,0000*60
$GPGSA,A,3,17,28,12,09,04,02,,,,,,,1.52,1.22,0.90*0C
$GPGSV,2,1,08,04,88,119,23,51,50,197,34,02,49,222,24,17,43,053,20*79
$GPGSV,2,2,08,09,34,282,28,28,31,127,16,12,19,316,19,20,12,047,*73
$GPRMC,010710.000,A,3242.5041,N,09721.4994,W,0.93,137.73,120907,,,D*72
$GPGGA,010711.000,3242.5042,N,09721.4992,W,2,6,1.22,208.3,M,-23.5,M,0000,0000*63
$GPGSA,A,3,17,28,12,09,04,02,,,,,,,1.52,1.22,0.90*0C
$GPGSV,2,1,08,04,88,119,22,51,50,197,33,02,49,222,24,17,43,053,20*7F
$GPGSV,2,2,08,09,34,282,28,28,31,127,16,12,19,316,20,20,12,047,*79
$GPRMC,010711.000,A,3242.5042,N,09721.4992,W,0.77,144.95,120907,,,D*70
$GPGGA,010712.000,3242.5039,N,09721.4991,W,2,6,1.22,208.3,M,-23.5,M,0000,0000*6F
$GPGSA,A,3,17,28,12,09,04,02,,,,,,,1.52,1.22,0.90*0C
$GPGSV,2,1,08,04,88,119,22,51,50,197,33,02,49,222,24,17,43,053,21*7E
$GPGSV,2,2,08,09,34,282,28,28,31,127,17,12,19,316,21,20,12,047,*79
$GPRMC,010712.000,A,3242.5039,N,09721.4991,W,0.79,153.17,120907,,,D*7E
$GPGGA,010713.000,3242.5042,N,09721.4986,W,2,6,1.22,208.5,M,-23.5,M,0000,0000*62
$GPGSA,A,3,17,28,12,09,04,02,,,,,,,1.52,1.22,0.90*0C
$GPGSV,2,1,08,04,88,119,22,51,50,197,33,02,49,222,24,17,43,053,22*7D
$GPGSV,2,2,08,09,34,282,27,28,31,127,17,12,19,316,21,20,12,047,*76
$GPRMC,010713.000,A,3242.5042,N,09721.4986,W,0.61,154.18,120907,,,D*74
$GPGGA,010714.000,3242.5041,N,09721.4986,W,2,6,1.22,208.5,M,-23.5,M,0000,0000*66
$GPGSA,A,3,17,28,12,09,04,02,,,,,,,1.52,1.22,0.90*0C
$GPGSV,2,1,08,04,88,119,22,51,50,197,32,02,49,222,24,17,43,053,22*7C
$GPGSV,2,2,08,09,34,282,26,28,31,127,17,12,19,316,21,20,12,047,*77
$GPRMC,010714.000,A,3242.5041,N,09721.4986,W,0.65,155.80,120907,,,D*74
$GPGGA,010715.000,3242.5041,N,09721.4986,W,2,6,1.22,208.7,M,-23.5,M,0000,0000*65
$GPGSA,A,3,17,28,12,09,04,02,,,,,,,1.52,1.22,0.90*0C
$GPGSV,2,1,08,04,88,119,22,51,50,197,32,02,49,222,24,17,43,053,23*7D
$GPGSV,2,2,08,09,34,282,26,28,31,127,18,12,19,316,21,20,12,047,*78
$GPRMC,010715.000,A,3242.5041,N,09721.4986,W,0.68,159.21,120907,,,D*7F
$GPGGA,010716.000,3242.5043,N,09721.4984,W,2,6,1.22,208.9,M,-23.5,M,0000,0000*68
$GPGSA,A,3,17,28,12,09,04,02,,,,,,,1.52,1.22,0.90*0C
$GPGSV,2,1,08,04,88,119,22,51,50,197,32,02,49,222,24,17,43,053,23*7D
$GPGSV,2,2,08,09,34,282,26,28,31,127,19,12,19,316,21,20,12,047,*79
$GPRMC,010716.000,A,3242.5043,N,09721.4984,W,0.61,157.74,120907,,,D*7B
$GPGGA,010717.000,3242.5044,N,09721.4986,W,2,6,1.22,209.2,M,-23.5,M,0000,0000*66
$GPGSA,A,3,17,28,12,09,04,02,,,,,,,1.52,1.22,0.90*0C
$GPGSV,2,1,08,04,88,119,22,51,50,197,33,02,49,222,24,17,43,053,22*7D
$GPGSV,2,2,08,09,34,282,26,28,31,127,20,12,19,316,21,20,12,047,*73
$GPRMC,010717.000,A,3242.5044,N,09721.4986,W,0.57,157.34,120907,,,D*7E
$GPGGA,010718.000,3242.5043,N,09721.4989,W,2,6,1.22,209.5,M,-23.5,M,0000,0000*66
$GPGSA,A,3,17,28,12,09,04,02,,,,,,,1.52,1.22,0.90*0C
$GPGSV,2,1,08,04,88,119,21,51,50,197,33,02,49,222,24,17,43,053,22*7E
$GPGSV,2,2,08,09,34,282,26,28,31,127,21,12,19,316,21,20,12,047,*72
$GPRMC,010718.000,A,3242.5043,N,09721.4989,W,0.44,158.68,120907,,,D*7D
$GPGGA,010719.000,3242.5045,N,09721.4992,W,2,6,1.22,209.8,M,-23.5,M,0000,0000*66
$GPGSA,A,3,17,28,12,09,04,02,,,,,,,1.52,1.22,0.90*0C
$GPGSV,2,1,08,04,88,119,21,51,50,197,33,02,49,222,24,17,43,053,23*7F
$GPGSV,2,2,08,09,34,282,25,28,31,127,21,12,19,316,21,20,12,047,*71
$GPRMC,010719.000,A,3242.5045,N,09721.4992,W,0.37,157.78,120907,,,D*7A
$GPGGA,010720.000,3242.5047,N,09721.4994,W,2,6,1.22,210.1,M,-23.5,M,0000,0000*69
$GPGSA,A,3,17,28,12,09,04,02,,,,,,,1.52,1.22,0.90*0C
$GPGSV,2,1,08,04,88,119,22,51,50,197,33,02,49,222,23,17,43,053,23*7B
$GPGSV,2,2,08,09,34,282,25,28,31,127,21,12,19,316,21,20,12,047,*71
$GPRMC,010720.000,A,3242.5047,N,09721.4994,W,0.39,156.47,120907,,,D*77
$GPGGA,010721.000,3242.5046,N,09721.4993,W,2,6,1.22,210.1,M,-23.5,M,0000,0000*6E
$GPGSA,A,3,17,28,12,09,04,02,,,,,,,1.52,1.22,0.90*0C
$GPGSV,2,1,08,04,88,119,21,51,50,197,33,02,49,222,23,17,43,053,23*78
$GPGSV,2,2,08,09,34,282,25,28,31,127,21,12,19,316,21,20,12,047,*71
$GPRMC,010721.000,A,3242.5046,N,09721.4993,W,0.38,155.42,120907,,,D*77
$GPGGA,010722.000,3242.5045,N,09721.4993,W,2,6,1.22,210.1,M,-23.5,M,0000,0000*6E
$GPGSA,A,3,17,28,12,09,04,02,,,,,,,1.52,1.22,0.90*0C
$GPGSV,2,1,08,04,88,119,21,51,50,197,33,02,49,222,23,17,43,053,24*7F
$GPGSV,2,2,08,09,34,282,25,28,31,127,21,12,19,316,21,20,12,047,*71
$GPRMC,010722.000,A,3242.5045,N,09721.4993,W,0.35,157.65,120907,,,D*7D
$GPGGA,010723.000,3242.5044,N,09721.4993,W,2,6,1.22,210.1,M,-23.5,M,0000,0000*6E
$GPGSA,A,3,17,28,12,09,04,02,,,,,,,1.52,1.22,0.90*0C
$GPGSV,2,1,08,04,88,119,21,51,50,197,33,02,49,222,23,17,43,053,25*7E
$GPGSV,2,2,08,09,34,282,25,28,31,127,21,12,19,316,21,20,12,047,*71
$GPRMC,010723.000,A,3242.5044,N,09721.4993,W,0.33,164.89,120907,,,D*79
$GPGGA,010724.000,3242.5043,N,09721.4993,W,2,6,1.22,210.1,M,-23.5,M,0000,0000*6E
$GPGSA,A,3,17,28,12,09,04,02,,,,,,,1.52,1.22,0.90*0C
$GPGSV,2,1,08,04,88,119,21,51,50,197,33,02,49,222,22,17,43,053,25*7F
$GPGSV,2,2,08,09,34,282,25,28,31,128,21,12,19,316,21,20,12,047,*7E
$GPRMC,010724.000,A,3242.5043,N,09721.4993,W,0.52,176.07,120907,,,D*7B
$GPGGA,010725.000,3242.5042,N,09721.4994,W,2,6,1.22,210.1,M,-23.5,M,0000,0000*69
$GPGSA,A,3,17,28,12,09,04,02,,,,,,,1.52,1.22,0.90*0C
$GPGSV,2,1,08,04,88,119,21,51,50,197,33,02,49,222,21,17,43,053,25*7C
$GPGSV,2,2,08,09,34,282,25,28,31,128,21,12,19,316,21,20,12,047,*7E
$GPRMC,010725.000,A,3242.5042,N,09721.4994,W,0.69,180.57,120907,,,D*78
$GPGGA,010726.000,3242.5038,N,09721.5000,W,2,6,1.22,210.3,M,-23.5,M,0000,0000*60
$GPGSA,A,3,17,28,12,09,04,02,,,,,,,1.52,1.22,0.90*0C
$GPGSV,2,1,08,04,88,119,21,51,50,197,33,02,49,222,21,17,43,053,25*7C
$GPGSV,2,2,08,09,34,282,25,28,31,128,21,12,19,316,21,20,12,047,*7E
$GPRMC,010726.000,A,3242.5038,N,09721.5000,W,0.74,182.42,120907,,,D*79
$GPGGA,010727.000,3242.5035,N,09721.5006,W,2,6,1.22,210.4,M,-23.5,M,0000,0000*6D
$GPGSA,A,3,17,28,12,09,04,02,,,,,,,1.52,1.22,0.90*0C
$GPGSV,2,1,08,04,88,119,21,51,50,197,32,02,49,222,21,17,43,053,25*7D
$GPGSV,2,2,08,09,34,282,25,28,31,128,22,12,19,316,21,20,12,047,*7D
$GPRMC,010727.000,A,3242.5035,N,09721.5006,W,0.76,188.36,120907,,,D*78
$GPGGA,010728.000,3242.5032,N,09721.5010,W,2,6,1.22,210.4,M,-23.5,M,0000,0000*62
$GPGSA,A,3,17,28,12,09,04,02,,,,,,,1.52,1.22,0.90*0C
$GPGSV,2,1,08,04,88,119,20,51,50,197,32,02,49,222,21,17,43,053,26*7F
$GPGSV,2,2,08,09,34,282,25,28,31,128,21,12,19,316,21,20,12,047,*7E
$GPRMC,010728.000,A,3242.5032,N,09721.5010,W,0.72,188.72,120907,,,D*73
$GPGGA,010729.000,3242.5031,N,09721.5014,W,2,6,1.22,210.6,M,-23.5,M,0000,0000*66
$GPGSA,A,3,17,28,12,09,04,02,,,,,,,1.52,1.22,0.90*0C
$GPGSV,2,1,08,04,88,119,19,51,50,197,32,02,49,222,21,17,43,053,26*75
$GPGSV,2,2,08,09,34,282,26,28,31,128,21,12,19,316,22,20,12,047,*7E
$GPRMC,010729.000,A,3242.5031,N,09721.5014,W,0.56,189.71,120907,,,D*71
$GPGGA,010730.000,3242.5026,N,09721.5019,W,2,6,1.22,210.7,M,-23.5,M,0000,0000*64
$GPGSA,A,3,17,28,12,09,04,02,,,,,,,1.52,1.22,0.90*0C
$GPGSV,2,1,08,04,88,119,19,02,50,223,21,51,50,197,32,17,43,053,26*7C
$GPGSV,2,2,08,09,34,282,26,28,31,128,21,12,19,316,22,20,12,047,20*7C
$GPRMC,010730.000,A,3242.5026,N,09721.5019,W,0.54,188.96,120907,,,D*78
$GPGGA,010731.000,3242.5024,N,09721.5022,W,2,6,1.22,210.7,M,-23.5,M,0000,0000*6F
$GPGSA,A,3,17,28,12,09,04,02,,,,,,,1.52,1.22,0.90*0C
$GPGSV,2,1,08,04,88,119,19,02,50,223,21,51,50,197,32,17,43,053,26*7C
$GPGSV,2,2,08,09,34,282,26,28,31,128,21,12,19,316,22,20,12,047,*7E
$GPRMC,010731.000,A,3242.5024,N,09721.5022,W,0.55,184.41,120907,,,D*74
$GPGGA,010732.000,3242.5022,N,09721.5021,W,2,6,1.22,210.8,M,-23.5,M,0000,0000*66
$GPGSA,A,3,17,28,12,09,04,02,,,,,,,1.52,1.22,0.90*0C
$GPGSV,2,1,08,04,88,111,19,02,50,223,22,51,50,197,32,17,43,053,26*77
$GPGSV,2,2,08,09,34,282,26,28,31,128,21,12,19,316,22,20,12,047,*7E
$GPRMC,010732.000,A,3242.5022,N,09721.5021,W,0.52,179.49,120907,,,D*7F
$GPGGA,010733.000,3242.5021,N,09721.5020,W,2,6,1.22,210.8,M,-23.5,M,0000,0000*65
$GPGSA,A,3,17,28,12,09,04,02,,,,,,,1.52,1.22,0.90*0C
$GPGSV,2,1,08,04,88,111,19,02,50,223,23,51,50,197,32,17,43,053,26*76
$GPGSV,2,2,08,09,34,282,26,28,31,128,21,12,19,316,22,20,12,047,*7E
$GPRMC,010733.000,A,3242.5021,N,09721.5020,W,0.42,180.74,120907,,,D*75
$GPGGA,010734.000,3242.5019,N,09721.5020,W,2,6,1.22,210.8,M,-23.5,M,0000,0000*69
$GPGSA,A,3,17,28,12,09,04,02,,,,,,,1.52,1.22,0.90*0C
$GPGSV,3,1,09,04,88,111,19,02,50,223,24,51,50,197,32,17,43,053,26*71
$GPGSV,3,2,09,09,34,282,26,28,31,128,21,12,19,316,22,20,12,047,*7E
$GPGSV,3,3,09,05,01,315,*43
$GPRMC,010734.000,A,3242.5019,N,09721.5020,W,0.35,184.96,120907,,,D*71
